[{"id":"8361b827-78bb-4489-9395-9a5fca6b62e1","name":"Arrabury Airport","iata":"AAB","icao":"YARY","timezone":"Australia/Brisbane","location":{"latitude":-26.691196,"longitude":141.047509},"city":"Arrabury","country":"Australia","countryCode":"AU","region":"Oceania","created":1519938460,"last_updated":1524073179,"relevance":4,"content_type":"AIRPORT"},{"id":"69de7d34-225d-4d9e-8bc9-252c90da8917","name":"El Arish International Airport","iata":"AAC","icao":"HEAR","timezone":"Africa/Cairo","location":{"latitude":31.076415,"longitude":33.832288},"city":"El Arish","country":"Egypt","countryCode":"EG","region":"Middle East","created":1519938460,"last_updated":1524073179,"relevance":4,"content_type":"AIRPORT"},{"id":"18aceb21-66e4-4752-99d1-517b23bbd4ca","name":"Apalachicola Regional Airport","iata":"AAF","icao":"KAAF","timezone":"America/New_York","location":{"latitude":29.733333,"longitude":-84.983333},"city":"Apalachicola","country":"United States","countryCode":"US","region":"North America","created":1519938460,"last_updated":1524073179,"relevance":2,"content_type":"AIRPORT"},{"id":"0404f415-3040-4132-9fa0-5f33c7cf222c","name":"Aachen-Merzbrück Airport","iata":"AAH","icao":"EDKA","timezone":"Europe/Berlin","location":{"latitude":50.75,"longitude":6.133333},"city":"Aachen","country":"Germany","countryCode":"DE","region":"Europe","created":1519938460,"last_updated":1524073179,"relevance":2,"content_type":"AIRPORT"},{"id":"733d4019-521e-44c9-be37-bb8a12b926df","name":"Arraias Airport","iata":"AAI","icao":"SWRA","timezone":"America/Belem","location":{"latitude":-12.916667,"longitude":-46.933333},"city":"Arraias","country":"Brazil","countryCode":"BR","region":"South America","created":1519938460,"last_updated":1524073180,"relevance":2,"content_type":"AIRPORT"},{"id":"bff7294c-1317-4d11-a540-1fbb2749a51f","name":"Aalborg Airport","iata":"AAL","icao":"EKYT","timezone":"Europe/Copenhagen","location":{"latitude":57.086551,"longitude":9.872241},"city":"Aalborg","country":"Denmark","countryCode":"DK","region":"Europe","created":1519938460,"last_updated":1524073180,"relevance":6,"content_type":"AIRPORT"},{"id":"293a19a5-f01e-47cb-8fce-da78542db5d6","name":"Al Ain International Airport","iata":"AAN","icao":"OMAL","timezone":"Asia/Dubai","location":{"latitude":24.260231,"longitude":55.616626},"city":"Al Ain","country":"United Arab Emirates","countryCode":"AE","region":"Middle East","created":1519938460,"last_updated":1524073180,"relevance":4,"content_type":"AIRPORT"},{"id":"7d89adfa-04d8-4c84-a279-4e0ba415b591","name":"Anaco Airport","iata":"AAO","icao":"SVAN","timezone":"America/Caracas","location":{"latitude":9.431944,"longitude":-64.463889},"city":"Anaco","country":"Venezuela","countryCode":"VE","region":"South America","created":1519938460,"last_updated":1524073180,"relevance":2,"content_type":"AIRPORT"},{"id":"89e772ab-4788-4835-bb3d-991c43142397","name":"Aarhus Airport","iata":"AAR","icao":"EKAH","timezone":"Europe/Copenhagen","location":{"latitude":56.30823,"longitude":10.626351},"city":"Aarhus","country":"Denmark","countryCode":"DK","region":"Europe","created":1519938460,"last_updated":1524073180,"relevance":4,"content_type":"AIRPORT"},{"id":"6a8a2b6f-3eaa-43d9-a037-b724acc0b9f7","name":"Altay Air Base","iata":"AAT","icao":"ZWAT","timezone":"Asia/Shanghai","location":{"latitude":47.750361,"longitude":88.084444},"city":"Altay","country":"China","countryCode":"CN","region":"Asia","created":1519938460,"last_updated":1524073180,"relevance":4,"content_type":"AIRPORT"},{"id":"7374da48-18c9-486b-8d34-79ffecac156e","name":"Allah Valley Airport","iata":"AAV","icao":"RPMA","timezone":"Asia/Manila","location":{"latitude":6.367314,"longitude":124.752781},"city":"Surallah","country":"Philippines","countryCode":"PH","region":"Asia","created":1519938460,"last_updated":1524073180,"relevance":2,"content_type":"AIRPORT"},{"id":"4dc9058e-a9b5-409d-a724-797f8b284c01","name":"Romeu Zema Airport","iata":"AAX","icao":"SBAX","timezone":"America/Sao_Paulo","location":{"latitude":-19.568056,"longitude":-46.929167},"city":"Araxa","country":"Brazil","countryCode":"BR","region":"South America","created":1519938460,"last_updated":1524073180,"relevance":4,"content_type":"AIRPORT"},{"id":"ad907552-21f2-4e53-89cf-46970b73cc2a","name":"Abakan Airport","iata":"ABA","icao":"UNAA","timezone":"Asia/Krasnoyarsk","location":{"latitude":53.716667,"longitude":91.5},"city":"Abakan","country":"Russian Federation","countryCode":"RU","region":"Europe","created":1519938460,"last_updated":1524073180,"relevance":4,"content_type":"AIRPORT"},{"id":"535b29a5-7f45-41b2-8f7f-15ac1f2dc5a1","name":"Asaba International Airport","iata":"ABB","icao":"DNAS","timezone":"Africa/Lagos","location":{"latitude":6.203055,"longitude":6.667222},"city":"Asaba","country":"Nigeria","countryCode":"NG","region":"Africa","created":1519938460,"last_updated":1524073180,"relevance":4,"content_type":"AIRPORT"},{"id":"07e1504c-be4e-4539-a180-2cec47a9472f","name":"Albacete-Los Llanos Airport","iata":"ABC","icao":"LEAB","timezone":"Europe/Madrid","location":{"latitude":38.948333,"longitude":-1.863333},"city":"Albacete","country":"Spain and Canary Islands","countryCode":"ES","region":"Europe","created":1519938460,"last_updated":1524073180,"relevance":4,"content_type":"AIRPORT"},{"id":"40332ab3-c5aa-46f9-b359-7a35a823acc6","name":"Lehigh Valley International Airport","iata":"ABE","icao":"KABE","timezone":"America/New_York","location":{"latitude":40.651573,"longitude":-75.434366},"city":"Allentown","country":"United States","countryCode":"US","region":"North America","created":1519938460,"last_updated":1524073180,"relevance":6,"content_type":"AIRPORT"},{"id":"e9e0c109-dfd6-459b-920e-af08e0bb4064","name":"Alpha Airport","iata":"ABH","icao":"YAPH","timezone":"Australia/Brisbane","location":{"latitude":-23.65,"longitude":146.633333},"city":"Alpha","country":"Australia","countryCode":"AU","region":"Oceania","created":1519938460,"last_updated":1524073180,"relevance":2,"content_type":"AIRPORT"},{"id":"c08df26d-6d2a-4f41-88ca-6813359a2ac6","name":"Port Bouet Airport","iata":"ABJ","icao":"DIAP","timezone":"Africa/Abidjan","location":{"latitude":5.254879,"longitude":-3.933015},"city":"Abidjan","country":"Cote d'Ivoire","countryCode":"CI","region":"Africa","created":1519938460,"last_updated":1524073180,"relevance":4,"content_type":"AIRPORT"},{"id":"eed49d4b-7df2-4ae1-a9dc-cdbd282d1142","name":"Kabri Dehar Airport","iata":"ABK","icao":"HAKD","timezone":"Africa/Addis_Ababa","location":{"latitude":6.733207,"longitude":44.249676},"city":"Kabri Dar","country":"Ethiopia","countryCode":"ET","region":"Africa","created":1519938460,"last_updated":1524073180,"relevance":4,"content_type":"AIRPORT"},{"id":"aaf6368e-fcd8-4496-a83c-4ea9ce027cfe","name":"Ambler Airport","iata":"ABL","icao":"PAFM","timezone":"America/Anchorage","location":{"latitude":67.0875,"longitude":-157.845833},"city":"Ambler","country":"United States","countryCode":"US","region":"North America","created":1519938460,"last_updated":1524073180,"relevance":4,"content_type":"AIRPORT"},{"id":"e1403f13-cbb8-4f63-8d43-82cbc87f9b9c","name":"Northern Peninsula Airport","iata":"ABM","icao":"YNEP","timezone":"Australia/Brisbane","location":{"latitude":-10.942619,"longitude":142.450334},"city":"Bamaga","country":"Australia","countryCode":"AU","region":"Oceania","created":1519938460,"last_updated":1524073180,"relevance":4,"content_type":"AIRPORT"},{"id":"29510eb9-2a76-4e4a-aace-b0e04395c76c","name":"Aboisso Airport","iata":"ABO","icao":"DIAO","timezone":"Africa/Abidjan","location":{"latitude":5.433333,"longitude":-3.216667},"city":"Aboisso","country":"Cote d'Ivoire","countryCode":"CI","region":"Africa","created":1519938460,"last_updated":1524073180,"relevance":2,"content_type":"AIRPORT"},{"id":"5c003bc3-08ad-4824-b3d4-fc40801bd9f7","name":"Aberdeen Regional Airport","iata":"ABR","icao":"KABR","timezone":"America/Chicago","location":{"latitude":45.44906,"longitude":-98.421829},"city":"Aberdeen","country":"United States","countryCode":"US","region":"North America","created":1519938460,"last_updated":1524073180,"relevance":4,"content_type":"AIRPORT"},{"id":"48fe0831-ef96-44b3-bedb-dd17379ba487","name":"Abu Simbel Airport","iata":"ABS","icao":"HEBL","timezone":"Africa/Cairo","location":{"latitude":22.367567,"longitude":31.609773},"city":"Abu Simbel","country":"Egypt","countryCode":"EG","region":"Middle East","created":1519938460,"last_updated":1524073180,"relevance":4,"content_type":"AIRPORT"},{"id":"37ac9edf-950a-4368-b47e-20ecfe4a854a","name":"Al Baha Airport","iata":"ABT","icao":"OEBA","timezone":"Asia/Riyadh","location":{"latitude":20.294011,"longitude":41.64002},"city":"Al-Baha","country":"Saudi Arabia","countryCode":"SA","region":"Middle East","created":1519938460,"last_updated":1524073180,"relevance":4,"content_type":"AIRPORT"},{"id":"a190334e-9f7b-47f5-8379-373af4a2f879","name":"Nnamdi Azikiwe International Airport","iata":"ABV","icao":"DNAA","timezone":"Africa/Lagos","location":{"latitude":9.004614,"longitude":7.270447},"city":"Abuja","country":"Nigeria","countryCode":"NG","region":"Africa","created":1519938460,"last_updated":1524073180,"relevance":6,"content_type":"AIRPORT"},{"id":"3919b16c-f754-4eee-87c0-e137e0ee4134","name":"Albury Airport","iata":"ABX","icao":"YMAY","timezone":"Australia/Sydney","location":{"latitude":-36.069625,"longitude":146.954531},"city":"Albury","country":"Australia","countryCode":"AU","region":"Oceania","created":1519938460,"last_updated":1524073180,"relevance":4,"content_type":"AIRPORT"},{"id":"00bb73fe-0d1a-43a2-ab5d-df8573a89530","name":"Southwest Georgia Regional Airport","iata":"ABY","icao":"KABY","timezone":"America/New_York","location":{"latitude":31.532222,"longitude":-84.196111},"city":"Albany","country":"United States","countryCode":"US","region":"North America","created":1519938460,"last_updated":1524073180,"relevance":4,"content_type":"AIRPORT"},{"id":"6019a256-012b-4bfa-bce0-81bb0219517b","name":"Antrim County Airport","iata":"ACB","icao":"KACB","timezone":"America/New_York","location":{"latitude":44.983333,"longitude":-85.216667},"city":"Bellaire","country":"United States","countryCode":"US","region":"North America","created":1519938460,"last_updated":1524073180,"relevance":4,"content_type":"AIRPORT"},{"id":"298c5068-9032-44e2-9556-eb6282cd79eb","name":"Kotoka International Airport","iata":"ACC","icao":"DGAA","timezone":"Africa/Accra","location":{"latitude":5.60737,"longitude":-0.171769},"city":"Accra","country":"Ghana","countryCode":"GH","region":"Africa","created":1519938460,"last_updated":1524073180,"relevance":6,"content_type":"AIRPORT"},{"id":"ec84af54-2761-4bfe-b61f-adac47a1c11b","name":"Lanzarote Airport","iata":"ACE","icao":"GCRR","timezone":"Atlantic/Canary","location":{"latitude":28.950668,"longitude":-13.609059},"city":"Lanzarote","country":"Spain and Canary Islands","countryCode":"ES","region":"Europe","created":1519938460,"last_updated":1524073180,"relevance":6,"content_type":"AIRPORT"},{"id":"44976e77-744f-44b3-b996-a6bf4dd95570","name":"St Gallen Altenrhein Airport","iata":"ACH","icao":"LSZR","timezone":"Europe/Zurich","location":{"latitude":47.483333,"longitude":9.566667},"city":"Altenrhein","country":"Switzerland","countryCode":"CH","region":"Europe","created":1519938460,"last_updated":1524073180,"relevance":4,"content_type":"AIRPORT"},{"id":"53681e38-01fb-4669-aa8d-2c4028e1baeb","name":"Alderney Airport","iata":"ACI","icao":"EGJA","timezone":"Europe/London","location":{"latitude":49.706717,"longitude":-2.21531},"city":"Alderney","country":"United Kingdom","countryCode":"GB","region":"Europe","created":1519938460,"last_updated":1524073180,"relevance":4,"content_type":"AIRPORT"},{"id":"60bafdd5-d12b-4499-99f2-daf18d49ad10","name":"Ciudad Acuña New International Airport","iata":"ACN","icao":"MMCC","timezone":"America/Matamoros","location":{"latitude":29.332855,"longitude":-101.099371},"city":"Ciudad Acuna","country":"Mexico","countryCode":"MX","region":"North America","created":1519938460,"last_updated":1524073180,"relevance":2,"content_type":"AIRPORT"},{"id":"f3f25642-e473-4dbe-ac86-cbf0690f4639","name":"Araracuara Airport","iata":"ACR","icao":"SKAC","timezone":"America/Bogota","location":{"latitude":-0.600268,"longitude":-72.399498},"city":"Araracuara","country":"Colombia","countryCode":"CO","region":"South America","created":1519938460,"last_updated":1524073180,"relevance":4,"content_type":"AIRPORT"},{"id":"0ebe0307-78bb-4f0e-8225-4a0cbd1dc11e","name":"Waco Regional Airport","iata":"ACT","icao":"KACT","timezone":"America/Chicago","location":{"latitude":31.609132,"longitude":-97.223217},"city":"Waco","country":"United States","countryCode":"US","region":"North America","created":1519938460,"last_updated":1524073180,"relevance":4,"content_type":"AIRPORT"},{"id":"2c4d700e-a633-4845-b159-8a103204f553","name":"Atlantic City International Airport","iata":"ACY","icao":"KACY","timezone":"America/New_York","location":{"latitude":39.450701,"longitude":-74.572233},"city":"Atlantic City","country":"United States","countryCode":"US","region":"North America","created":1519938460,"last_updated":1524073180,"relevance":4,"content_type":"AIRPORT"},{"id":"df09d0e5-5815-4ef4-8f2c-1abc6367278b","name":"Zabol Airport","iata":"ACZ","icao":"OIZB","timezone":"Asia/Tehran","location":{"latitude":31.087694,"longitude":61.542245},"city":"Zabol","country":"Iran","countryCode":"IR","region":"Asia","created":1519938460,"last_updated":1524073180,"relevance":4,"content_type":"AIRPORT"},{"id":"28901de3-6539-4202-89fa-4934db899b83","name":"Adana Airport","iata":"ADA","icao":"LTAF","timezone":"Europe/Istanbul","location":{"latitude":36.982185,"longitude":35.280391},"city":"Adana","country":"Turkey","countryCode":"TR","region":"Europe","created":1519938460,"last_updated":1524073180,"relevance":6,"content_type":"AIRPORT"},{"id":"a754884f-adbe-4676-91ef-329f09a7067b","name":"Adnan Menderes International Airport","iata":"ADB","icao":"LTBJ","timezone":"Europe/Istanbul","location":{"latitude":38.294403,"longitude":27.147594},"city":"Izmir","country":"Turkey","countryCode":"TR","region":"Europe","created":1519938460,"last_updated":1524073180,"relevance":8,"content_type":"AIRPORT"},{"id":"2bf9899e-f003-42b2-b084-e1db9ddb9c10","name":"Aden International Airport","iata":"ADE","icao":"OYAA","timezone":"Asia/Aden","location":{"latitude":12.826116,"longitude":45.037535},"city":"Aden","country":"Republic of Yemen","countryCode":"YE","region":"Middle East","created":1519938460,"last_updated":1524073180,"relevance":4,"content_type":"AIRPORT"},{"id":"428e448b-a7e4-4225-adbe-3ec6736f0d50","name":"Adıyaman Airport","iata":"ADF","icao":"LTCP","timezone":"Europe/Istanbul","location":{"latitude":37.75,"longitude":38.266667},"city":"Adiyaman","country":"Turkey","countryCode":"TR","region":"Europe","created":1519938460,"last_updated":1524073180,"relevance":4,"content_type":"AIRPORT"},{"id":"1fcada71-56d8-414f-ac57-dabcee00189d","name":"Lenawee County Airport","iata":"ADG","icao":"KADG","timezone":"America/New_York","location":{"latitude":41.9,"longitude":-84.033333},"city":"Adrian","country":"United States","countryCode":"US","region":"North America","created":1519938460,"last_updated":1524073180,"relevance":2,"content_type":"AIRPORT"},{"id":"fbb4c198-4004-4022-bdd3-79818ad9e95d","name":"Arandis Airport","iata":"ADI","icao":"FYAR","timezone":"Africa/Windhoek","location":{"latitude":-22.4,"longitude":15.0},"city":"Arandis","country":"Namibia","countryCode":"NA","region":"Africa","created":1519938460,"last_updated":1524073180,"relevance":2,"content_type":"AIRPORT"},{"id":"e640905b-ef26-4d17-8ed3-582368842949","name":"Andamooka Airport","iata":"ADO","icao":"YAMK","timezone":"Australia/Adelaide","location":{"latitude":-31.016667,"longitude":137.15},"city":"Andamooka","country":"Australia","countryCode":"AU","region":"Oceania","created":1519938460,"last_updated":1524073180,"relevance":2,"content_type":"AIRPORT"},{"id":"e38ca7e4-ffeb-4ea1-a243-d51695fee098","name":"Ampara Airport","iata":"ADP","icao":"VCCG","timezone":"Asia/Colombo","location":{"latitude":7.338118,"longitude":81.626701},"city":"Gal Oya","country":"Sri Lanka","countryCode":"LK","region":"Asia","created":1519938460,"last_updated":1524073181,"relevance":2,"content_type":"AIRPORT"},{"id":"b5073eb0-9380-4bd7-8e82-3f6dd7fbe68c","name":"Kodiak Airport","iata":"ADQ","icao":"PADQ","timezone":"America/Anchorage","location":{"latitude":57.753887,"longitude":-152.514408},"city":"Kodiak","country":"United States","countryCode":"US","region":"North America","created":1519938460,"last_updated":1524073181,"relevance":6,"content_type":"AIRPORT"},{"id":"9b8c79c0-70c4-4197-a645-0879564a5e44","name":"Robert F Swinnie Airport","iata":"ADR","icao":"KPHH","timezone":"America/New_York","location":{"latitude":33.45,"longitude":-79.566667},"city":"Andrews","country":"United States","countryCode":"US","region":"North America","created":1519938460,"last_updated":1524073181,"relevance":2,"content_type":"AIRPORT"},{"id":"7fe01e39-3b9f-43a0-b4c0-193203570ebc","name":"Ada Regional Airport","iata":"ADT","icao":"KADH","timezone":"America/Chicago","location":{"latitude":34.8,"longitude":-96.666667},"city":"Ada","country":"United States","countryCode":"US","region":"North America","created":1519938460,"last_updated":1524073181,"relevance":2,"content_type":"AIRPORT"},{"id":"0ef5b7dc-4618-42ed-8f50-e192ce2fe826","name":"Ardabil Airport","iata":"ADU","icao":"OITL","timezone":"Asia/Tehran","location":{"latitude":38.323826,"longitude":48.42125},"city":"Ardabil","country":"Iran","countryCode":"IR","region":"Asia","created":1519938460,"last_updated":1524073181,"relevance":4,"content_type":"AIRPORT"},{"id":"678caabb-4ef0-44bf-98b1-b19d8348dc46","name":"Andrews Air Force Base","iata":"ADW","icao":"KADW","timezone":"America/New_York","location":{"latitude":38.816667,"longitude":-76.866667},"city":"Camp Springs","country":"United States","countryCode":"US","region":"North America","created":1519938460,"last_updated":1524073181,"relevance":4,"content_type":"AIRPORT"},{"id":"37381641-1fbd-43d0-942a-00d6aacd63d2","name":"Gustavo Rojas Pinilla International Airport","iata":"ADZ","icao":"SKSP","timezone":"America/Bogota","location":{"latitude":12.586047,"longitude":-81.702208},"city":"San Andres Island","country":"Colombia","countryCode":"CO","region":"South America","created":1519938460,"last_updated":1524073181,"relevance":4,"content_type":"AIRPORT"},{"id":"90dbbc5d-e5cd-4015-9699-b47784591546","name":"Baise Youjiang Airport","iata":"AEB","icao":"ZGBS","timezone":"Asia/Shanghai","location":{"latitude":23.719469,"longitude":106.967772},"city":"Baise","country":"China","countryCode":"CN","region":"Asia","created":1519938460,"last_updated":1524073181,"relevance":4,"content_type":"AIRPORT"},{"id":"e54f2c21-bea9-4c97-8cf0-db5e81bc7831","name":"Abeche Airport","iata":"AEH","icao":"FTTC","timezone":"Africa/Ndjamena","location":{"latitude":13.851389,"longitude":20.850833},"city":"Abecher","country":"Chad","countryCode":"TD","region":"Africa","created":1519938460,"last_updated":1524073181,"relevance":2,"content_type":"AIRPORT"},{"id":"2bdec54a-73bd-4f85-a03c-15444badf1c2","name":"Albert Lea Municipal Airport","iata":"AEL","icao":"KAEL","timezone":"America/Chicago","location":{"latitude":43.65,"longitude":-93.366667},"city":"Albert Lea","country":"United States","countryCode":"US","region":"North America","created":1519938460,"last_updated":1524073181,"relevance":2,"content_type":"AIRPORT"},{"id":"ee85f0c1-fc3d-4488-9f08-7e0dedcdb87d","name":"Aioun el Atrouss Airport","iata":"AEO","icao":"GQNA","timezone":"Africa/Nouakchott","location":{"latitude":16.709167,"longitude":-9.635556},"city":"Aioun El Atrouss","country":"Mauritania","countryCode":"MR","region":"Africa","created":1519938460,"last_updated":1524073181,"relevance":2,"content_type":"AIRPORT"},{"id":"45603af8-f1dd-4d15-b030-dcbaff1700bc","name":"Sochi International Airport","iata":"AER","icao":"URSS","timezone":"Europe/Moscow","location":{"latitude":43.44884,"longitude":39.941106},"city":"Adler/Sochi","country":"Russian Federation","countryCode":"RU","region":"Europe","created":1519938460,"last_updated":1524073181,"relevance":6,"content_type":"AIRPORT"},{"id":"812bdff4-16f9-45d9-8c67-db8e284ae7f8","name":"Ålesund Airport","iata":"AES","icao":"ENAL","timezone":"Europe/Oslo","location":{"latitude":62.559644,"longitude":6.116605},"city":"Aalesund","country":"Norway","countryCode":"NO","region":"Europe","created":1519938460,"last_updated":1524073181,"relevance":4,"content_type":"AIRPORT"},{"id":"105712e0-3453-4179-afef-fa73e498de1e","name":"Abumusa Island Airport","iata":"AEU","icao":"OIBA","timezone":"Asia/Tehran","location":{"latitude":25.875475,"longitude":55.033913},"city":"Abu Musa","country":"Iran","countryCode":"IR","region":"Asia","created":1519938460,"last_updated":1524073181,"relevance":4,"content_type":"AIRPORT"},{"id":"16314e32-631d-434c-8a04-a0d01aed258a","name":"Alexandria International Airport","iata":"AEX","icao":"KAEX","timezone":"America/Chicago","location":{"latitude":31.322573,"longitude":-92.542568},"city":"Alexandria","country":"United States","countryCode":"US","region":"North America","created":1519938460,"last_updated":1524073181,"relevance":4,"content_type":"AIRPORT"},{"id":"8768869e-8cae-4ad9-a948-c10f1317011e","name":"Suboficial Ay Santiago Germano Airport","iata":"AFA","icao":"SAMR","timezone":"America/Argentina/Buenos_Aires","location":{"latitude":-34.589167,"longitude":-68.400556},"city":"San Rafael","country":"Argentina","countryCode":"AR","region":"South America","created":1519938460,"last_updated":1524073181,"relevance":4,"content_type":"AIRPORT"},{"id":"d2c363b5-3c4e-4546-a700-add9bbd00047","name":"Port Alfred Airport","iata":"AFD","icao":"FAPA","timezone":"Africa/Johannesburg","location":{"latitude":-33.583333,"longitude":26.883333},"city":"Port Alfred","country":"South Africa","countryCode":"ZA","region":"Africa","created":1519938460,"last_updated":1524073181,"relevance":2,"content_type":"AIRPORT"},{"id":"24050336-9d70-4833-a94b-87300228ee8b","name":"USAF Academy Airfield","iata":"AFF","icao":"KAFF","timezone":"America/Denver","location":{"latitude":38.833333,"longitude":-104.7},"city":"Colorado Springs","country":"United States","countryCode":"US","region":"North America","created":1519938460,"last_updated":1524073181,"relevance":2,"content_type":"AIRPORT"},{"id":"e0f8189b-e793-4971-abb6-5365d22a657c","name":"Jaffrey Airport Silver Ranch Airport","iata":"AFN","icao":"KAFN","timezone":"America/New_York","location":{"latitude":42.833333,"longitude":-72.066667},"city":"Jaffrey","country":"United States","countryCode":"US","region":"North America","created":1519938460,"last_updated":1524073181,"relevance":2,"content_type":"AIRPORT"},{"id":"d1ba0e3a-f377-419e-98bf-717ef597ed04","name":"Afton Municipal Airport","iata":"AFO","icao":"KAFO","timezone":"America/Denver","location":{"latitude":42.733333,"longitude":-110.933333},"city":"Afton","country":"United States","countryCode":"US","region":"North America","created":1519938460,"last_updated":1524073181,"relevance":2,"content_type":"AIRPORT"},{"id":"8c49d80a-6a94-4d71-9f82-9ec35f531734","name":"Fort Worth Alliance Airport","iata":"AFW","icao":"KAFW","timezone":"America/Chicago","location":{"latitude":32.985651,"longitude":-97.315295},"city":"Fort Worth","country":"United States","countryCode":"US","region":"North America","created":1519938460,"last_updated":1524073181,"relevance":6,"content_type":"AIRPORT"},{"id":"f53dfef7-ecba-4b6a-9a20-9ac0e162c2e4","name":"Al Massira Airport","iata":"AGA","icao":"GMAD","timezone":"Africa/Casablanca","location":{"latitude":30.328562,"longitude":-9.410592},"city":"Agadir","country":"Morocco","countryCode":"MA","region":"Africa","created":1519938460,"last_updated":1524073181,"relevance":4,"content_type":"AIRPORT"},{"id":"ddc3a4ae-a735-4983-aa26-39f74b332ac8","name":"Augsburg Airport","iata":"AGB","icao":"EDMA","timezone":"Europe/Berlin","location":{"latitude":48.425278,"longitude":10.931667},"city":"Augsburg","country":"Germany","countryCode":"DE","region":"Europe","created":1519938460,"last_updated":1524073181,"relevance":4,"content_type":"AIRPORT"},{"id":"d2f95b88-00bb-40d8-ad8f-f3cf30219648","name":"Allegheny County Airport","iata":"AGC","icao":"KAGC","timezone":"America/New_York","location":{"latitude":40.354722,"longitude":-79.93},"city":"Pittsburgh","country":"United States","countryCode":"US","region":"North America","created":1519938460,"last_updated":1524073181,"relevance":4,"content_type":"AIRPORT"},{"id":"9849a071-58a6-440e-b54c-ec2dd52c0e3e","name":"Agen-La Garenne Airport","iata":"AGF","icao":"LFBA","timezone":"Europe/Paris","location":{"latitude":44.173611,"longitude":0.598611},"city":"Agen","country":"France","countryCode":"FR","region":"Europe","created":1519938460,"last_updated":1524073181,"relevance":4,"content_type":"AIRPORT"},{"id":"23a01afe-2249-4e6e-8f77-07dc6a435cd4","name":"Ängelholm-Helsingborg Airport","iata":"AGH","icao":"ESDB","timezone":"Europe/Stockholm","location":{"latitude":56.287066,"longitude":12.867092},"city":"Angelholm/Helsingborg","country":"Sweden","countryCode":"SE","region":"Europe","created":1519938460,"last_updated":1524073181,"relevance":4,"content_type":"AIRPORT"},{"id":"d48328e2-6451-4587-a8a8-d6cb4cf32090","name":"Aguni Airport","iata":"AGJ","icao":"RORA","timezone":"Asia/Tokyo","location":{"latitude":26.589722,"longitude":127.238056},"city":"Aguni","country":"Japan","countryCode":"JP","region":"Asia","created":1519938460,"last_updated":1524073181,"relevance":4,"content_type":"AIRPORT"},{"id":"20ddfc4c-d75c-4126-8d28-722fd106cfd1","name":"Magnolia Municipal Airport","iata":"AGO","icao":"KAGO","timezone":"America/Chicago","location":{"latitude":33.266667,"longitude":-93.233333},"city":"Magnolia","country":"United States","countryCode":"US","region":"North America","created":1519938460,"last_updated":1524073181,"relevance":2,"content_type":"AIRPORT"},{"id":"674c2562-9e30-4d18-982b-4ce8db5a94a7","name":"Málaga Airport","iata":"AGP","icao":"LEMG","timezone":"Europe/Madrid","location":{"latitude":36.675181,"longitude":-4.489616},"city":"Malaga","country":"Spain and Canary Islands","countryCode":"ES","region":"Europe","created":1519938460,"last_updated":1524073181,"relevance":8,"content_type":"AIRPORT"},{"id":"6469a595-2208-4b33-9d54-d6b36e113ae1","name":"Agrinion Air Base","iata":"AGQ","icao":"LGAG","timezone":"Europe/Athens","location":{"latitude":38.604167,"longitude":21.351944},"city":"Agrinion","country":"Greece","countryCode":"GR","region":"Europe","created":1519938460,"last_updated":1524073181,"relevance":2,"content_type":"AIRPORT"},{"id":"5a077f56-1d26-4ff3-88e2-868fe2654346","name":"Agra Airport","iata":"AGR","icao":"VIAG","timezone":"Asia/Kolkata","location":{"latitude":27.158333,"longitude":77.962778},"city":"Agra","country":"India","countryCode":"IN","region":"Asia","created":1519938460,"last_updated":1524073181,"relevance":4,"content_type":"AIRPORT"},{"id":"8d3dad27-3d44-445c-8a08-3b8c614e33d1","name":"Guarani International Airport","iata":"AGT","icao":"SGES","timezone":"America/Asuncion","location":{"latitude":-25.455507,"longitude":-54.843581},"city":"Ciudad del Este","country":"Paraguay","countryCode":"PY","region":"South America","created":1519938460,"last_updated":1524073181,"relevance":4,"content_type":"AIRPORT"},{"id":"a35614ff-723f-4419-902b-433493c14d68","name":"Jesús Terán Paredo International Airport","iata":"AGU","icao":"MMAS","timezone":"America/Mexico_City","location":{"latitude":21.705535,"longitude":-102.317818},"city":"Aguascalientes","country":"Mexico","countryCode":"MX","region":"North America","created":1519938460,"last_updated":1524073181,"relevance":4,"content_type":"AIRPORT"},{"id":"02ed4401-e293-449a-8deb-4175c731fe23","name":"Oswaldo Guevara Mujica Airport","iata":"AGV","icao":"SVAC","timezone":"America/Caracas","location":{"latitude":9.552222,"longitude":-69.233333},"city":"Acarigua","country":"Venezuela","countryCode":"VE","region":"South America","created":1519938460,"last_updated":1524073181,"relevance":2,"content_type":"AIRPORT"},{"id":"156861f9-b282-45ca-8fec-0757ed720727","name":"Abha Regional Airport","iata":"AHB","icao":"OEAB","timezone":"Asia/Riyadh","location":{"latitude":18.23429,"longitude":42.657575},"city":"Abha","country":"Saudi Arabia","countryCode":"SA","region":"Middle East","created":1519938460,"last_updated":1524073181,"relevance":6,"content_type":"AIRPORT"},{"id":"ed675125-7393-45a8-b339-e83385371b76","name":"Amedee Army Air Field","iata":"AHC","icao":"KAHC","timezone":"America/Los_Angeles","location":{"latitude":40.15,"longitude":-120.133333},"city":"Herlong","country":"United States","countryCode":"US","region":"North America","created":1519938460,"last_updated":1524073181,"relevance":2,"content_type":"AIRPORT"},{"id":"9a705ba6-db6d-4f6b-94e9-9e10a334b080","name":"Aishalton Airport","iata":"AHL","icao":"SYAH","timezone":"America/Guyana","location":{"latitude":2.483333,"longitude":-59.316667},"city":"Aishalton","country":"Guyana","countryCode":"GY","region":"South America","created":1519938460,"last_updated":1524073181,"relevance":2,"content_type":"AIRPORT"},{"id":"7fdbc763-9abc-4d57-a385-8e1a7397f9ea","name":"Athens Ben Epps Airport","iata":"AHN","icao":"KAHN","timezone":"America/New_York","location":{"latitude":33.951951,"longitude":-83.324725},"city":"Athens","country":"United States","countryCode":"US","region":"North America","created":1519938460,"last_updated":1524073181,"relevance":4,"content_type":"AIRPORT"},{"id":"42e96ab5-8bca-46f4-b2e7-dd629314d676","name":"Alghero-Fertilia Airport","iata":"AHO","icao":"LIEA","timezone":"Europe/Rome","location":{"latitude":40.630405,"longitude":8.295891},"city":"Alghero","country":"Italy","countryCode":"IT","region":"Europe","created":1519938460,"last_updated":1524073181,"relevance":4,"content_type":"AIRPORT"},{"id":"9e810a8c-2482-4dca-9045-8138849b6516","name":"Cherif Al Idrissi Airport","iata":"AHU","icao":"GMTA","timezone":"Africa/Casablanca","location":{"latitude":35.179722,"longitude":-3.836944},"city":"Al Hoceima","country":"Morocco","countryCode":"MA","region":"Africa","created":1519938460,"last_updated":1524073181,"relevance":4,"content_type":"AIRPORT"},{"id":"5194ef37-d471-469a-9615-0c867e2dfea5","name":"Marcelo Pires Halzhausen Airport","iata":"AIF","icao":"SBAS","timezone":"America/Sao_Paulo","location":{"latitude":-22.666667,"longitude":-50.416667},"city":"Assis","country":"Brazil","countryCode":"BR","region":"South America","created":1519938460,"last_updated":1524073181,"relevance":2,"content_type":"AIRPORT"},{"id":"bf5cdc2c-6181-452c-81df-177fa56dd25b","name":"Yalinga Airport","iata":"AIG","icao":"FEFY","timezone":"Africa/Bangui","location":{"latitude":6.516667,"longitude":23.25},"city":"Yalinga","country":"Central African Republic","countryCode":"CF","region":"Africa","created":1519938460,"last_updated":1524073181,"relevance":2,"content_type":"AIRPORT"},{"id":"3ebc357f-5fbd-45c5-acdc-e70bd6cd429f","name":"Aitutaki Airport","iata":"AIT","icao":"NCAI","timezone":"Pacific/Rarotonga","location":{"latitude":-18.829443,"longitude":-159.766992},"city":"Aitutaki","country":"Cook Islands","countryCode":"CK","region":"Oceania","created":1519938460,"last_updated":1524073181,"relevance":4,"content_type":"AIRPORT"},{"id":"8c3b2e48-8896-4238-a72b-5fa554488cd0","name":"Enua Airport","iata":"AIU","icao":"NCAT","timezone":"Pacific/Rarotonga","location":{"latitude":-19.967872,"longitude":-158.119014},"city":"Atiu Island","country":"Cook Islands","countryCode":"CK","region":"Oceania","created":1519938460,"last_updated":1524073181,"relevance":4,"content_type":"AIRPORT"},{"id":"3cc6d40d-cf39-4c91-8e5b-0f5543b24adc","name":"Atlantic City Municipal Bader Field","iata":"AIY","icao":"KAIY","timezone":"America/New_York","location":{"latitude":39.36,"longitude":-74.457222},"city":"Atlantic City","country":"United States","countryCode":"US","region":"North America","created":1519938460,"last_updated":1524073181,"relevance":2,"content_type":"AIRPORT"},{"id":"4f74cef9-3c69-42f6-93cf-119aef1b2e45","name":"Lee C Fine Memorial Airport","iata":"AIZ","icao":"KAIZ","timezone":"America/Chicago","location":{"latitude":38.098333,"longitude":-92.547222},"city":"Kaiser/Lake Ozark","country":"United States","countryCode":"US","region":"North America","created":1519938460,"last_updated":1524073181,"relevance":4,"content_type":"AIRPORT"},{"id":"be9c90a7-5cd1-4296-add9-ecbdba03591c","name":"Al-Jawf Domestic Airport","iata":"AJF","icao":"OESK","timezone":"Asia/Riyadh","location":{"latitude":29.788668,"longitude":40.101486},"city":"Jouf","country":"Saudi Arabia","countryCode":"SA","region":"Middle East","created":1519938460,"last_updated":1524073181,"relevance":4,"content_type":"AIRPORT"},{"id":"30377ec7-cb5d-4035-b977-e99a36e97067","name":"Ağrı Airport","iata":"AJI","icao":"LTCO","timezone":"Europe/Istanbul","location":{"latitude":39.65,"longitude":43.025},"city":"Agri","country":"Turkey","countryCode":"TR","region":"Europe","created":1519938460,"last_updated":1524073181,"relevance":4,"content_type":"AIRPORT"},{"id":"0853cc33-0ada-4d92-bce4-f9d502a856ee","name":"Akjoujt Airport","iata":"AJJ","icao":"GQNJ","timezone":"Africa/Nouakchott","location":{"latitude":19.730556,"longitude":-14.374444},"city":"Akjoujt","country":"Mauritania","countryCode":"MR","region":"Africa","created":1519938460,"last_updated":1524073181,"relevance":2,"content_type":"AIRPORT"},{"id":"d00180dc-f40c-443f-a98c-86ba81c0537d","name":"Arak Airport","iata":"AJK","icao":"OIHR","timezone":"Asia/Tehran","location":{"latitude":34.134875,"longitude":49.842483},"city":"Arak","country":"Iran","countryCode":"IR","region":"Asia","created":1519938460,"last_updated":1524073181,"relevance":4,"content_type":"AIRPORT"},{"id":"9a92f457-6257-462c-b9f9-48e53c869784","name":"Lengpui Airport","iata":"AJL","icao":"VEAZ","timezone":"Asia/Kolkata","location":{"latitude":23.838986,"longitude":92.624815},"city":"Aizawl","country":"India","countryCode":"IN","region":"Asia","created":1519938460,"last_updated":1524073181,"relevance":4,"content_type":"AIRPORT"},{"id":"0f0f2801-fa94-44fa-a570-51af2279fde3","name":"Arvidsjaur Airport","iata":"AJR","icao":"ESNX","timezone":"Europe/Stockholm","location":{"latitude":65.591389,"longitude":19.285556},"city":"Arvidsjaur","country":"Sweden","countryCode":"SE","region":"Europe","created":1519938460,"last_updated":1524073182,"relevance":4,"content_type":"AIRPORT"},{"id":"a2adeaa6-596a-42c0-9c66-1e563d1c98f6","name":"Santa Maria Airport","iata":"AJU","icao":"SBAR","timezone":"America/Belem","location":{"latitude":-10.987206,"longitude":-37.072791},"city":"Aracaju","country":"Brazil","countryCode":"BR","region":"South America","created":1519938460,"last_updated":1524073182,"relevance":4,"content_type":"AIRPORT"},{"id":"bfc38893-2062-46b2-aaf1-541818fdf4c7","name":"Mano Dayak International Airport","iata":"AJY","icao":"DRZA","timezone":"Africa/Niamey","location":{"latitude":16.964167,"longitude":7.993056},"city":"Agades","country":"Niger","countryCode":"NE","region":"Africa","created":1519938460,"last_updated":1524073182,"relevance":4,"content_type":"AIRPORT"},{"id":"0fde43eb-dbbe-4cfb-8489-655d976fa7c1","name":"Akola Airport","iata":"AKD","icao":"VAAK","timezone":"Asia/Kolkata","location":{"latitude":20.666667,"longitude":77.083333},"city":"Akola","country":"India","countryCode":"IN","region":"Asia","created":1519938460,"last_updated":1524073182,"relevance":2,"content_type":"AIRPORT"},{"id":"9f168ab8-3c5c-40f1-b86a-2aa95d5658ca","name":"Kufra Airport","iata":"AKF","icao":"HLKF","timezone":"Africa/Tripoli","location":{"latitude":24.183924,"longitude":23.320841},"city":"Kufra","country":"Libya","countryCode":"LY","region":"Africa","created":1519938460,"last_updated":1524073182,"relevance":4,"content_type":"AIRPORT"},{"id":"f62440e6-d671-4ec9-9432-f518a80ff694","name":"Prince Sultan Air Base","iata":"AKH","icao":"OEKJ","timezone":"Asia/Riyadh","location":{"latitude":24.063333,"longitude":47.580556},"city":"Al Kharj","country":"Saudi Arabia","countryCode":"SA","region":"Middle East","created":1519938460,"last_updated":1524073182,"relevance":4,"content_type":"AIRPORT"},{"id":"01dd2816-0014-40c9-837e-876d02124842","name":"Asahikawa Airport","iata":"AKJ","icao":"RJEC","timezone":"Asia/Tokyo","location":{"latitude":43.671091,"longitude":142.454546},"city":"Asahikawa","country":"Japan","countryCode":"JP","region":"Asia","created":1519938460,"last_updated":1524073182,"relevance":4,"content_type":"AIRPORT"},{"id":"0b50fa2a-bab6-44c2-bcd8-678f40d15369","name":"Auckland International Airport","iata":"AKL","icao":"NZAA","timezone":"Pacific/Auckland","location":{"latitude":-37.004786,"longitude":174.783524},"city":"Auckland","country":"New Zealand","countryCode":"NZ","region":"Oceania","created":1519938460,"last_updated":1524073182,"relevance":8,"content_type":"AIRPORT"},{"id":"7ab7568d-a4ab-41ee-a6ac-60fc84fbe1e5","name":"Colorado Plains Regional Airport","iata":"AKO","icao":"KAKO","timezone":"America/Denver","location":{"latitude":40.166667,"longitude":-103.216667},"city":"Akron","country":"United States","countryCode":"US","region":"North America","created":1519938460,"last_updated":1524073182,"relevance":2,"content_type":"AIRPORT"},{"id":"a8ef5498-a663-4218-abe4-6b82601c5e92","name":"Anaktuvuk Pass Airport","iata":"AKP","icao":"PAKP","timezone":"America/Anchorage","location":{"latitude":68.1375,"longitude":-151.74},"city":"Anaktuvuk","country":"United States","countryCode":"US","region":"North America","created":1519938460,"last_updated":1524073182,"relevance":4,"content_type":"AIRPORT"},{"id":"11894666-6ed4-430d-a450-8a97422cb71b","name":"Akure Airport","iata":"AKR","icao":"DNAK","timezone":"Africa/Lagos","location":{"latitude":7.250303,"longitude":5.300223},"city":"Akure","country":"Nigeria","countryCode":"NG","region":"Africa","created":1519938460,"last_updated":1524073182,"relevance":4,"content_type":"AIRPORT"},{"id":"fc3910e3-f04d-4f80-bb2e-39ecb8ea187b","name":"RAF Akrotiri","iata":"AKT","icao":"LCRA","timezone":"Asia/Nicosia","location":{"latitude":34.590395,"longitude":32.987887},"city":"Akrotiri","country":"Cyprus","countryCode":"CY","region":"Europe","created":1519938460,"last_updated":1524073182,"relevance":2,"content_type":"AIRPORT"},{"id":"5f6b40ac-5b91-4e1b-8eb0-df991b8e9ad7","name":"Aksu Airport","iata":"AKU","icao":"ZWAK","timezone":"Asia/Shanghai","location":{"latitude":41.259984,"longitude":80.292618},"city":"Aksu","country":"China","countryCode":"CN","region":"Asia","created":1519938460,"last_updated":1524073182,"relevance":4,"content_type":"AIRPORT"},{"id":"f097b006-971f-480d-8bf9-a545d92600b6","name":"Akulivik Airport","iata":"AKV","icao":"CYKO","timezone":"America/Toronto","location":{"latitude":60.733333,"longitude":-78.583333},"city":"Akulivik","country":"Canada","countryCode":"CA","region":"North America","created":1519938460,"last_updated":1524073182,"relevance":4,"content_type":"AIRPORT"},{"id":"6a233ea4-2965-4c52-8d3f-cf4f4a43dec4","name":"Aghajari Airport","iata":"AKW","icao":"OIAG","timezone":"Asia/Tehran","location":{"latitude":30.75,"longitude":49.683333},"city":"Aghajari","country":"Iran","countryCode":"IR","region":"Asia","created":1519938460,"last_updated":1524073182,"relevance":2,"content_type":"AIRPORT"},{"id":"f2feaadc-cb31-43ad-9ed6-33b5dd1292da","name":"Sittwe Airport","iata":"AKY","icao":"VYSW","timezone":"Asia/Yangon","location":{"latitude":20.130278,"longitude":92.880278},"city":"Sittwe","country":"Myanmar","countryCode":"MM","region":"Asia","created":1519938460,"last_updated":1524073182,"relevance":4,"content_type":"AIRPORT"},{"id":"362ab720-d32c-4f3d-a4b1-e70990043472","name":"Almaty Airport","iata":"ALA","icao":"UAAA","timezone":"Asia/Qyzylorda","location":{"latitude":43.346652,"longitude":77.011455},"city":"Almaty","country":"Kazakhstan","countryCode":"KZ","region":"Asia","created":1519938460,"last_updated":1524073182,"relevance":6,"content_type":"AIRPORT"},{"id":"4597b82d-4c75-473e-8404-61ff3e7b505b","name":"Albany International Airport","iata":"ALB","icao":"KALB","timezone":"America/New_York","location":{"latitude":42.745279,"longitude":-73.809556},"city":"Albany","country":"United States","countryCode":"US","region":"North America","created":1519938460,"last_updated":1524073182,"relevance":8,"content_type":"AIRPORT"},{"id":"77758636-906e-48b4-badf-e8608fb249dc","name":"Alerta Airport","iata":"ALD","icao":"SPAR","timezone":"America/Lima","location":{"latitude":-11.683333,"longitude":-69.333333},"city":"Alerta","country":"Peru","countryCode":"PE","region":"South America","created":1519938460,"last_updated":1524073182,"relevance":2,"content_type":"AIRPORT"},{"id":"6eabc636-d051-4048-98af-05b756d42a36","name":"Alta Airport","iata":"ALF","icao":"ENAT","timezone":"Europe/Oslo","location":{"latitude":69.977167,"longitude":23.355809},"city":"Alta","country":"Norway","countryCode":"NO","region":"Europe","created":1519938460,"last_updated":1524073182,"relevance":4,"content_type":"AIRPORT"},{"id":"b7988da7-eb3e-45b5-a87f-4e748a2f47ae","name":"Houari Boumediene Airport","iata":"ALG","icao":"DAAG","timezone":"Africa/Algiers","location":{"latitude":36.697892,"longitude":3.207136},"city":"Algiers","country":"Algeria","countryCode":"DZ","region":"Africa","created":1519938460,"last_updated":1524073182,"relevance":8,"content_type":"AIRPORT"},{"id":"9b49c9e3-9806-4e96-bfcd-b31f798ec390","name":"Albany Airport","iata":"ALH","icao":"YABA","timezone":"Australia/Perth","location":{"latitude":-34.944997,"longitude":117.804001},"city":"Albany","country":"Australia","countryCode":"AU","region":"Oceania","created":1519938460,"last_updated":1524073182,"relevance":4,"content_type":"AIRPORT"},{"id":"b663a7d6-ae21-40b3-887b-22bd18e49511","name":"Alexander Bay Airport","iata":"ALJ","icao":"FAAB","timezone":"Africa/Johannesburg","location":{"latitude":-28.574996,"longitude":16.53333},"city":"Alexander Bay","country":"South Africa","countryCode":"ZA","region":"Africa","created":1519938460,"last_updated":1524073182,"relevance":2,"content_type":"AIRPORT"},{"id":"3926a4dc-d819-4108-aa46-81ae0fadc792","name":"Villanova D'Albenga International Airport","iata":"ALL","icao":"LIMG","timezone":"Europe/Rome","location":{"latitude":44.05,"longitude":8.216667},"city":"Albenga","country":"Italy","countryCode":"IT","region":"Europe","created":1519938460,"last_updated":1524073182,"relevance":2,"content_type":"AIRPORT"},{"id":"6b68cadc-92ff-4fd4-9dae-cd3efe963e8c","name":"Alamogordo White Sands Regional Airport","iata":"ALM","icao":"KALM","timezone":"America/Denver","location":{"latitude":32.845833,"longitude":-105.985278},"city":"Alamogordo","country":"United States","countryCode":"US","region":"North America","created":1519938460,"last_updated":1524073182,"relevance":4,"content_type":"AIRPORT"},{"id":"09106a1a-9b92-41a6-8074-75f3bcdee538","name":"Waterloo Regional Airport","iata":"ALO","icao":"KALO","timezone":"America/Chicago","location":{"latitude":42.556111,"longitude":-92.399722},"city":"Waterloo","country":"United States","countryCode":"US","region":"North America","created":1519938460,"last_updated":1524073182,"relevance":4,"content_type":"AIRPORT"},{"id":"7b86b6f5-988c-4d9e-a27d-ef6b60f87898","name":"Aleppo International Airport","iata":"ALP","icao":"OSAP","timezone":"Asia/Damascus","location":{"latitude":36.185351,"longitude":37.227073},"city":"Aleppo","country":"Syrian Arab Republic","countryCode":"SY","region":"Middle East","created":1519938460,"last_updated":1524073182,"relevance":4,"content_type":"AIRPORT"},{"id":"8198d0df-9b41-4e39-9a6a-1d2657ca6691","name":"Alegrete Novo Airport","iata":"ALQ","icao":"SSAL","timezone":"America/Sao_Paulo","location":{"latitude":-29.799722,"longitude":-55.763333},"city":"Alegrete","country":"Brazil","countryCode":"BR","region":"South America","created":1519938460,"last_updated":1524073182,"relevance":2,"content_type":"AIRPORT"},{"id":"045ba1a2-e5b4-46fe-9575-0d2ce719958a","name":"Alula Airport","iata":"ALU","icao":"HCMA","timezone":"Africa/Mogadishu","location":{"latitude":11.966667,"longitude":50.8},"city":"Alula","country":"Somalia","countryCode":"SO","region":"Africa","created":1519938460,"last_updated":1524073182,"relevance":2,"content_type":"AIRPORT"},{"id":"13ce5662-0d07-492e-8d00-25aedb3fd2f6","name":"Walla Walla Regional Airport","iata":"ALW","icao":"KALW","timezone":"America/Los_Angeles","location":{"latitude":46.094722,"longitude":-118.291111},"city":"Walla Walla","country":"United States","countryCode":"US","region":"North America","created":1519938460,"last_updated":1524073182,"relevance":4,"content_type":"AIRPORT"},{"id":"6c9fcf0b-0976-49c8-a96d-b96a1749f426","name":"El Nouzha Airport","iata":"ALY","icao":"HEAX","timezone":"Africa/Cairo","location":{"latitude":31.192545,"longitude":29.953059},"city":"Alexandria","country":"Egypt","countryCode":"EG","region":"Middle East","created":1519938460,"last_updated":1524073182,"relevance":4,"content_type":"AIRPORT"},{"id":"c58fd065-03af-4fb5-adaa-66759a30b212","name":"Rick Husband Amarillo International Airport","iata":"AMA","icao":"KAMA","timezone":"America/Chicago","location":{"latitude":35.218274,"longitude":-101.705134},"city":"Amarillo","country":"United States","countryCode":"US","region":"North America","created":1519938460,"last_updated":1524073182,"relevance":6,"content_type":"AIRPORT"},{"id":"9e648b6e-1d83-4dcc-8389-b0eafbe62325","name":"Ambilobe Airport","iata":"AMB","icao":"FMNE","timezone":"Indian/Antananarivo","location":{"latitude":-13.183333,"longitude":48.983333},"city":"Ambilobe","country":"Madagascar","countryCode":"MG","region":"Africa","created":1519938460,"last_updated":1524073182,"relevance":2,"content_type":"AIRPORT"},{"id":"371c9336-6e4f-46ff-9830-190ad6a2f36e","name":"Sardar Vallabhbhai Patel International Airport","iata":"AMD","icao":"VAAH","timezone":"Asia/Kolkata","location":{"latitude":23.066389,"longitude":72.624167},"city":"Ahmedabad","country":"India","countryCode":"IN","region":"Asia","created":1519938460,"last_updated":1524073182,"relevance":6,"content_type":"AIRPORT"},{"id":"03b851ff-cd08-4f72-ab25-4abe88db68bc","name":"Arba Minch Airport","iata":"AMH","icao":"HAAM","timezone":"Africa/Addis_Ababa","location":{"latitude":6.036111,"longitude":37.576944},"city":"Arba Mintch","country":"Ethiopia","countryCode":"ET","region":"Africa","created":1519938460,"last_updated":1524073182,"relevance":4,"content_type":"AIRPORT"},{"id":"f18f930f-28a3-4403-abed-578533660ef7","name":"Selaparang Airport","iata":"AMI","icao":"WRRA","timezone":"Asia/Makassar","location":{"latitude":-8.563165,"longitude":116.102375},"city":"Mataram","country":"Indonesia","countryCode":"ID","region":"Asia","created":1519938460,"last_updated":1524073182,"relevance":4,"content_type":"AIRPORT"},{"id":"d3657a90-3dbc-470b-abf6-0657a6a5d09c","name":"Gratiot Community Airport","iata":"AMN","icao":"KAMN","timezone":"America/New_York","location":{"latitude":43.383333,"longitude":-84.65},"city":"Alma","country":"United States","countryCode":"US","region":"North America","created":1519938460,"last_updated":1524073182,"relevance":2,"content_type":"AIRPORT"},{"id":"0a1ab297-b0c4-491a-bd9a-a7bfd7c3b63a","name":"Mao Airport","iata":"AMO","icao":"FTTU","timezone":"Africa/Ndjamena","location":{"latitude":14.116667,"longitude":15.316667},"city":"Mao","country":"Chad","countryCode":"TD","region":"Africa","created":1519938460,"last_updated":1524073182,"relevance":2,"content_type":"AIRPORT"},{"id":"009a05ef-4d6f-4987-b99c-09f61aed5d21","name":"Pattimura Airport, Ambon","iata":"AMQ","icao":"WAPP","timezone":"Asia/Jayapura","location":{"latitude":-3.704996,"longitude":128.088876},"city":"Ambon","country":"Indonesia","countryCode":"ID","region":"Asia","created":1519938460,"last_updated":1524073182,"relevance":4,"content_type":"AIRPORT"},{"id":"f671c076-61b7-4572-8abb-359aaadaafd4","name":"Amsterdam Airport Schiphol","iata":"AMS","icao":"EHAM","timezone":"Europe/Amsterdam","location":{"latitude":52.309069,"longitude":4.763385},"city":"Amsterdam","country":"Netherlands","countryCode":"NL","region":"Europe","created":1519938460,"last_updated":1524073182,"relevance":10,"content_type":"AIRPORT"},{"id":"8ca50359-8fe5-4ce3-853a-0d1bc35a8307","name":"Amderma Airport","iata":"AMV","icao":"ULDD","timezone":"Europe/Moscow","location":{"latitude":69.761503,"longitude":61.574462},"city":"Amderma","country":"Russian Federation","countryCode":"RU","region":"Europe","created":1519938460,"last_updated":1524073182,"relevance":4,"content_type":"AIRPORT"},{"id":"44225f56-275c-41c4-a99f-4d7e3af5120c","name":"Ames Municipal Airport","iata":"AMW","icao":"KAMW","timezone":"America/Chicago","location":{"latitude":41.994167,"longitude":-93.618333},"city":"Ames","country":"United States","countryCode":"US","region":"North America","created":1519938460,"last_updated":1524073182,"relevance":2,"content_type":"AIRPORT"},{"id":"c9b615f4-1f30-4a06-9d30-368292bc8d64","name":"Anniston Metropolitan Airport","iata":"ANB","icao":"KANB","timezone":"America/Chicago","location":{"latitude":33.588193,"longitude":-85.8581},"city":"Anniston","country":"United States","countryCode":"US","region":"North America","created":1519938460,"last_updated":1524073182,"relevance":4,"content_type":"AIRPORT"},{"id":"fcce0165-9269-480d-ae64-991e6ea807f9","name":"Ted Stevens Anchorage International Airport","iata":"ANC","icao":"PANC","timezone":"America/Anchorage","location":{"latitude":61.174444,"longitude":-149.996389},"city":"Anchorage","country":"United States","countryCode":"US","region":"North America","created":1519938460,"last_updated":1524073182,"relevance":10,"content_type":"AIRPORT"},{"id":"956198e9-52b3-4d15-a8c8-0b9698ffee1d","name":"Angers-Loire Airport","iata":"ANE","icao":"LFJR","timezone":"Europe/Paris","location":{"latitude":47.560351,"longitude":-0.312245},"city":"Angers","country":"France","countryCode":"FR","region":"Europe","created":1519938460,"last_updated":1524073182,"relevance":4,"content_type":"AIRPORT"},{"id":"bd4d779a-bff8-4d7e-b71c-ab83d34155cb","name":"Cerro Moreno Airport","iata":"ANF","icao":"SCFA","timezone":"America/Santiago","location":{"latitude":-23.449,"longitude":-70.440789},"city":"Antofagasta","country":"Chile","countryCode":"CL","region":"South America","created":1519938460,"last_updated":1524073182,"relevance":6,"content_type":"AIRPORT"},{"id":"5aee1399-31fc-4745-8766-cfe1281b2fcb","name":"Angoulême-Brie-Champniers Airport","iata":"ANG","icao":"LFBU","timezone":"Europe/Paris","location":{"latitude":45.727359,"longitude":0.218923},"city":"Angouleme","country":"France","countryCode":"FR","region":"Europe","created":1519938460,"last_updated":1524073182,"relevance":4,"content_type":"AIRPORT"},{"id":"f0ac8a0c-59f7-4648-9027-4153eb210062","name":"Aniak Airport","iata":"ANI","icao":"PANI","timezone":"America/Anchorage","location":{"latitude":61.574399,"longitude":-159.536971},"city":"Aniak","country":"United States","countryCode":"US","region":"North America","created":1519938460,"last_updated":1524073182,"relevance":4,"content_type":"AIRPORT"},{"id":"74f24d85-86a0-4c15-abb8-445dc1d9e3ca","name":"Etimesgut Air Base","iata":"ANK","icao":"LTAD","timezone":"Europe/Istanbul","location":{"latitude":39.950283,"longitude":32.689136},"city":"Ankara","country":"Turkey","countryCode":"TR","region":"Europe","created":1519938460,"last_updated":1524073182,"relevance":4,"content_type":"AIRPORT"},{"id":"4b0d1753-d2bc-4fe2-8674-3671110d42ac","name":"Antsirabato Airport","iata":"ANM","icao":"FMNH","timezone":"Indian/Antananarivo","location":{"latitude":-15.0,"longitude":50.316667},"city":"Antalaha","country":"Madagascar","countryCode":"MG","region":"Africa","created":1519938460,"last_updated":1524073182,"relevance":4,"content_type":"AIRPORT"},{"id":"9baa5219-11d1-48ac-833e-541084424570","name":"Angoche Airport","iata":"ANO","icao":"FQAG","timezone":"Africa/Maputo","location":{"latitude":-16.177778,"longitude":39.936944},"city":"Angoche","country":"Mozambique","countryCode":"MZ","region":"Africa","created":1519938460,"last_updated":1524073182,"relevance":2,"content_type":"AIRPORT"},{"id":"0d8a8c66-8958-46a1-b74b-03aa82eb400f","name":"Tri State Steuben County Airport","iata":"ANQ","icao":"KANQ","timezone":"America/Indiana/Indianapolis","location":{"latitude":41.633333,"longitude":-85.0},"city":"Angola","country":"United States","countryCode":"US","region":"North America","created":1519938460,"last_updated":1524073182,"relevance":2,"content_type":"AIRPORT"},{"id":"d41c050e-17cd-4765-949a-42f4f662c168","name":"Antwerp International Airport (Deurne)","iata":"ANR","icao":"EBAW","timezone":"Europe/Brussels","location":{"latitude":51.18916,"longitude":4.450672},"city":"Antwerp","country":"Belgium","countryCode":"BE","region":"Europe","created":1519938460,"last_updated":1524073182,"relevance":4,"content_type":"AIRPORT"},{"id":"73e33473-e9eb-49c7-a812-193c9b74085f","name":"Andahuaylas Airport","iata":"ANS","icao":"SPHY","timezone":"America/Lima","location":{"latitude":-13.716667,"longitude":-73.355833},"city":"Andahuaylas","country":"Peru","countryCode":"PE","region":"South America","created":1519938460,"last_updated":1524073182,"relevance":4,"content_type":"AIRPORT"},{"id":"37d42f84-4c8a-4ef9-b9ad-fb68a357d271","name":"Anvik Airport","iata":"ANV","icao":"PANV","timezone":"America/Anchorage","location":{"latitude":62.647778,"longitude":-160.188889},"city":"Anvik","country":"United States","countryCode":"US","region":"North America","created":1519938460,"last_updated":1524073182,"relevance":4,"content_type":"AIRPORT"},{"id":"4c1f461f-090d-426a-9446-5d54a98df9d0","name":"Ainsworth Municipal Airport","iata":"ANW","icao":"KANW","timezone":"America/Chicago","location":{"latitude":42.55,"longitude":-99.866667},"city":"Ainsworth","country":"United States","countryCode":"US","region":"North America","created":1519938460,"last_updated":1524073182,"relevance":2,"content_type":"AIRPORT"},{"id":"747ae89a-32cc-4b06-bf7b-7f37db7e60a2","name":"Andøya Airport","iata":"ANX","icao":"ENAN","timezone":"Europe/Oslo","location":{"latitude":69.292486,"longitude":16.144184},"city":"Andenes","country":"Norway","countryCode":"NO","region":"Europe","created":1519938460,"last_updated":1524073182,"relevance":4,"content_type":"AIRPORT"},{"id":"aaa8d898-fd65-4a7c-ba55-51a3c85ae596","name":"Altenburg-Nobitz Airport","iata":"AOC","icao":"EDAC","timezone":"Europe/Berlin","location":{"latitude":50.981945,"longitude":12.506389},"city":"Altenburg","country":"Germany","countryCode":"DE","region":"Europe","created":1519938460,"last_updated":1524073182,"relevance":4,"content_type":"AIRPORT"},{"id":"4c5869c9-7f27-4d27-9c2f-4badca9accbb","name":"Anadolu Airport","iata":"AOE","icao":"LTBY","timezone":"Europe/Istanbul","location":{"latitude":39.81,"longitude":30.519444},"city":"Eskisehir","country":"Turkey","countryCode":"TR","region":"Europe","created":1519938460,"last_updated":1524073182,"relevance":4,"content_type":"AIRPORT"},{"id":"4a2295a3-71cf-4e40-a56c-5d1687679f3f","name":"Anshan Air Base","iata":"AOG","icao":"ZYAS","timezone":"Asia/Shanghai","location":{"latitude":41.105975,"longitude":122.853926},"city":"Anshan","country":"China","countryCode":"CN","region":"Asia","created":1519938460,"last_updated":1524073182,"relevance":4,"content_type":"AIRPORT"},{"id":"4ad5adf8-f7c7-4db9-996e-b86d88340bcc","name":"Lima Allen County Airport","iata":"AOH","icao":"KAOH","timezone":"America/New_York","location":{"latitude":40.766667,"longitude":-84.1},"city":"Lima","country":"United States","countryCode":"US","region":"North America","created":1519938460,"last_updated":1524073182,"relevance":2,"content_type":"AIRPORT"},{"id":"100d2dee-3db8-4ca2-8f04-729aa5aab819","name":"Aomori Airport","iata":"AOJ","icao":"RJSA","timezone":"Asia/Tokyo","location":{"latitude":40.738757,"longitude":140.689224},"city":"Aomori","country":"Japan","countryCode":"JP","region":"Asia","created":1519938460,"last_updated":1524073182,"relevance":4,"content_type":"AIRPORT"},{"id":"dac9310e-bb2b-4644-9e4a-b0127cf62898","name":"Karpathos Airport","iata":"AOK","icao":"LGKP","timezone":"Europe/Athens","location":{"latitude":35.420683,"longitude":27.146728},"city":"Karpathos","country":"Greece","countryCode":"GR","region":"Europe","created":1519938460,"last_updated":1524073182,"relevance":4,"content_type":"AIRPORT"},{"id":"07bc1f13-ec14-489d-ac82-ef7e12ce6be8","name":"Paso De Los Libres Airport","iata":"AOL","icao":"SARL","timezone":"America/Argentina/Buenos_Aires","location":{"latitude":-29.683333,"longitude":-57.15},"city":"Paso de los Libres","country":"Argentina","countryCode":"AR","region":"South America","created":1519938460,"last_updated":1524073182,"relevance":2,"content_type":"AIRPORT"},{"id":"42ad0889-c1eb-464b-8d6f-288c736d90f2","name":"Alferez FAP Alfredo Vladimir Sara Bauer Airport","iata":"AOP","icao":"SPAS","timezone":"America/Lima","location":{"latitude":-2.791389,"longitude":-76.474722},"city":"Andoas","country":"Peru","countryCode":"PE","region":"South America","created":1519938460,"last_updated":1524073182,"relevance":4,"content_type":"AIRPORT"},{"id":"5c960b91-4d47-4641-8853-6991bd1a7b60","name":"Aappilattoq-Upernanik Heliport","iata":"AOQ","icao":"BGAG","timezone":"America/Godthab","location":{"latitude":72.887041,"longitude":-55.596145},"city":"Aappilattoq","country":"Greenland","countryCode":"GL","region":"North America","created":1519938460,"last_updated":1524073182,"relevance":4,"content_type":"AIRPORT"},{"id":"07930e25-60aa-4565-8254-2226ed554c60","name":"Sultan Abdul Halim Airport","iata":"AOR","icao":"WMKA","timezone":"Asia/Kuala_Lumpur","location":{"latitude":6.191186,"longitude":100.396629},"city":"Alor Setar","country":"Malaysia","countryCode":"MY","region":"Asia","created":1519938460,"last_updated":1524073182,"relevance":4,"content_type":"AIRPORT"},{"id":"d933175f-a053-4b8c-8cdd-465076b4bbf6","name":"Aosta Airport","iata":"AOT","icao":"LIMW","timezone":"Europe/Rome","location":{"latitude":45.738611,"longitude":7.3625},"city":"Aosta","country":"Italy","countryCode":"IT","region":"Europe","created":1519938460,"last_updated":1524073182,"relevance":4,"content_type":"AIRPORT"},{"id":"329f325b-af73-4ce0-b2d8-8a6e03c75cd5","name":"Centennial Airport","iata":"APA","icao":"KAPA","timezone":"America/Denver","location":{"latitude":39.572123,"longitude":-104.848713},"city":"Denver","country":"United States","countryCode":"US","region":"North America","created":1519938460,"last_updated":1524073183,"relevance":6,"content_type":"AIRPORT"},{"id":"d9b463e5-fe1c-40c7-9936-e29c1d8020ad","name":"Apolo Airport","iata":"APB","icao":"SLAP","timezone":"America/La_Paz","location":{"latitude":-14.716667,"longitude":-68.516667},"city":"Apolo","country":"Bolivia","countryCode":"BO","region":"South America","created":1519938460,"last_updated":1524073183,"relevance":2,"content_type":"AIRPORT"},{"id":"57efdd81-9257-4825-abe3-302f68284b13","name":"Napa County Airport","iata":"APC","icao":"KAPC","timezone":"America/Los_Angeles","location":{"latitude":38.212222,"longitude":-122.28},"city":"Napa","country":"United States","countryCode":"US","region":"North America","created":1519938460,"last_updated":1524073183,"relevance":4,"content_type":"AIRPORT"},{"id":"2e8a1411-1ff8-4c3c-8c95-38663a7e82f1","name":"Phillips Army Air Field","iata":"APG","icao":"KAPG","timezone":"America/New_York","location":{"latitude":39.5,"longitude":-76.166667},"city":"Aberdeen","country":"United States","countryCode":"US","region":"North America","created":1519938460,"last_updated":1524073183,"relevance":2,"content_type":"AIRPORT"},{"id":"5a57020b-2da0-435d-b452-a93eb146b0ab","name":"Apataki Airport","iata":"APK","icao":"NTGD","timezone":"Pacific/Tahiti","location":{"latitude":-15.572857,"longitude":-146.414129},"city":"Apataki","country":"French Polynesia","countryCode":"PF","region":"Oceania","created":1519938460,"last_updated":1524073183,"relevance":4,"content_type":"AIRPORT"},{"id":"07726d29-0774-4db6-95b7-7d67184345ad","name":"Nampula Airport","iata":"APL","icao":"FQNP","timezone":"Africa/Maputo","location":{"latitude":-15.101667,"longitude":39.287222},"city":"Nampula","country":"Mozambique","countryCode":"MZ","region":"Africa","created":1519938460,"last_updated":1524073183,"relevance":4,"content_type":"AIRPORT"},{"id":"dcf23efd-73a9-4699-b486-db30342a5bd4","name":"Antonio Roldan Betancourt Airport","iata":"APO","icao":"SKLC","timezone":"America/Bogota","location":{"latitude":7.817678,"longitude":-76.71766},"city":"Apartado","country":"Colombia","countryCode":"CO","region":"South America","created":1519938460,"last_updated":1524073183,"relevance":4,"content_type":"AIRPORT"},{"id":"d2c54d8d-5151-4ef5-9bfe-2977b5408d42","name":"Arapiraca Airport","iata":"APQ","icao":"SNAL","timezone":"America/Belem","location":{"latitude":-9.75,"longitude":-36.65},"city":"Arapiraca","country":"Brazil","countryCode":"BR","region":"South America","created":1519938460,"last_updated":1524073183,"relevance":2,"content_type":"AIRPORT"},{"id":"821fdf4f-b20d-4e0e-a4ad-dd7540d518b4","name":"Anápolis Airport","iata":"APS","icao":"SWNS","timezone":"America/Sao_Paulo","location":{"latitude":-16.360671,"longitude":-48.924353},"city":"Anapolis","country":"Brazil","countryCode":"BR","region":"South America","created":1519938460,"last_updated":1524073183,"relevance":2,"content_type":"AIRPORT"},{"id":"3edc7385-e79a-4d39-8246-f6db32f5af26","name":"Apucarana Airport","iata":"APU","icao":"SSAP","timezone":"America/Sao_Paulo","location":{"latitude":-23.55,"longitude":-51.483333},"city":"Apucarana","country":"Brazil","countryCode":"BR","region":"South America","created":1519938460,"last_updated":1524073183,"relevance":2,"content_type":"AIRPORT"},{"id":"0ab616f3-6962-4db6-bf65-80e8828a64ea","name":"Faleolo International Airport","iata":"APW","icao":"NSFA","timezone":"Pacific/Apia","location":{"latitude":-13.832793,"longitude":-171.997244},"city":"Apia","country":"Samoa","countryCode":"WS","region":"Oceania","created":1519938460,"last_updated":1524073183,"relevance":4,"content_type":"AIRPORT"},{"id":"cab78b13-8a3f-4c57-9c5b-884321ce6b99","name":"Arapongas Airport","iata":"APX","icao":"SSOG","timezone":"America/Sao_Paulo","location":{"latitude":-23.483333,"longitude":-51.466667},"city":"Arapongas","country":"Brazil","countryCode":"BR","region":"South America","created":1519938460,"last_updated":1524073183,"relevance":2,"content_type":"AIRPORT"},{"id":"9ad29ac3-9f13-4641-954d-eec8b3310907","name":"Abilene Regional Airport","iata":"ABI","icao":"KABI","timezone":"America/Chicago","location":{"latitude":32.412843,"longitude":-99.680052},"city":"Abilene","country":"United States","countryCode":"US","region":"North America","created":1519938460,"last_updated":1524073180,"relevance":4,"content_type":"AIRPORT"},{"id":"5b45c087-75f4-44db-9bf2-cc029c6bdbda","name":"Al Qaisumah/Hafr Al Batin Airport","iata":"AQI","icao":"OEPA","timezone":"Asia/Riyadh","location":{"latitude":28.334408,"longitude":46.121316},"city":"Qaisumah","country":"Saudi Arabia","countryCode":"SA","region":"Middle East","created":1519938460,"last_updated":1524073183,"relevance":4,"content_type":"AIRPORT"},{"id":"6140b639-d069-4698-a0f4-41fbc0e69d8b","name":"Aqaba King Hussein International Airport","iata":"AQJ","icao":"OJAQ","timezone":"Asia/Amman","location":{"latitude":29.610074,"longitude":35.021511},"city":"Aqaba","country":"Jordan","countryCode":"JO","region":"Middle East","created":1519938460,"last_updated":1524073183,"relevance":4,"content_type":"AIRPORT"},{"id":"0798be9e-e57a-4c48-8f01-e151fd913644","name":"Nova Vida Airport","iata":"AQM","icao":"SWNI","timezone":"America/Porto_Velho","location":{"latitude":-9.933333,"longitude":-63.066667},"city":"Ariquemes","country":"Brazil","countryCode":"BR","region":"South America","created":1519938460,"last_updated":1524073183,"relevance":2,"content_type":"AIRPORT"},{"id":"83b1a5c9-2112-49f1-8321-a1e0c267143a","name":"Acadiana Regional Airport","iata":"ARA","icao":"KARA","timezone":"America/Chicago","location":{"latitude":30.037778,"longitude":-91.883889},"city":"New Iberia","country":"United States","countryCode":"US","region":"North America","created":1519938460,"last_updated":1524073183,"relevance":4,"content_type":"AIRPORT"},{"id":"b2ca8277-7364-4f90-b49a-91e69fbeeb15","name":"Ann Arbor Municipal Airport","iata":"ARB","icao":"KARB","timezone":"America/New_York","location":{"latitude":42.224912,"longitude":-83.74559},"city":"Ann Arbor","country":"United States","countryCode":"US","region":"North America","created":1519938460,"last_updated":1524073183,"relevance":4,"content_type":"AIRPORT"},{"id":"dfd3b097-e93d-4739-bec8-3e20127b2a91","name":"Arctic Village Airport","iata":"ARC","icao":"PARC","timezone":"America/Anchorage","location":{"latitude":68.1375,"longitude":-145.524444},"city":"Arctic Village","country":"United States","countryCode":"US","region":"North America","created":1519938460,"last_updated":1524073183,"relevance":4,"content_type":"AIRPORT"},{"id":"1988ccb1-3a70-40ff-b46d-51b5a54db6d7","name":"Walnut Ridge Regional Airport","iata":"ARG","icao":"KARG","timezone":"America/Chicago","location":{"latitude":36.066667,"longitude":-90.95},"city":"Walnut Ridge","country":"United States","countryCode":"US","region":"North America","created":1519938460,"last_updated":1524073183,"relevance":2,"content_type":"AIRPORT"},{"id":"d5beaf9c-2cb9-4e29-8522-b1120e10fdff","name":"Talagi Airport","iata":"ARH","icao":"ULAA","timezone":"Europe/Moscow","location":{"latitude":64.597581,"longitude":40.713989},"city":"Arkhangelsk","country":"Russian Federation","countryCode":"RU","region":"Europe","created":1519938460,"last_updated":1524073183,"relevance":4,"content_type":"AIRPORT"},{"id":"0d6cee1f-1236-4825-98ed-e2ad7729e956","name":"Chacalluta Airport","iata":"ARI","icao":"SCAR","timezone":"America/Santiago","location":{"latitude":-18.349765,"longitude":-70.335559},"city":"Arica","country":"Chile","countryCode":"CL","region":"South America","created":1519938460,"last_updated":1524073183,"relevance":4,"content_type":"AIRPORT"},{"id":"1433a871-e860-409d-9413-0ce2aa703c75","name":"Arly Airport","iata":"ARL","icao":"DFER","timezone":"Africa/Ouagadougou","location":{"latitude":11.597078,"longitude":1.482278},"city":"Arly","country":"Burkina Faso","countryCode":"BF","region":"Africa","created":1519938460,"last_updated":1524073183,"relevance":4,"content_type":"AIRPORT"},{"id":"09489018-12fc-4773-b54a-a4e311401537","name":"Armidale Airport","iata":"ARM","icao":"YARM","timezone":"Australia/Sydney","location":{"latitude":-30.532297,"longitude":151.61493},"city":"Armidale","country":"Australia","countryCode":"AU","region":"Oceania","created":1519938460,"last_updated":1524073183,"relevance":4,"content_type":"AIRPORT"},{"id":"94e58d0c-8465-4ac1-bc7e-4cff8f3240a0","name":"Stockholm-Arlanda Airport","iata":"ARN","icao":"ESSA","timezone":"Europe/Stockholm","location":{"latitude":59.649818,"longitude":17.930364},"city":"Stockholm","country":"Sweden","countryCode":"SE","region":"Europe","created":1519938460,"last_updated":1524073183,"relevance":10,"content_type":"AIRPORT"},{"id":"a0638aa3-de35-4398-b7e0-07628fd0f15b","name":"Aragarças Airport","iata":"ARS","icao":"SWAC","timezone":"America/Sao_Paulo","location":{"latitude":-15.9,"longitude":-52.233333},"city":"Aragarcas","country":"Brazil","countryCode":"BR","region":"South America","created":1519938460,"last_updated":1524073183,"relevance":2,"content_type":"AIRPORT"},{"id":"2f03e70e-a5a6-44e4-9daf-9949603c2d4b","name":"Araçatuba Airport","iata":"ARU","icao":"SBAU","timezone":"America/Sao_Paulo","location":{"latitude":-21.143611,"longitude":-50.426111},"city":"Aracatuba","country":"Brazil","countryCode":"BR","region":"South America","created":1519938460,"last_updated":1524073183,"relevance":4,"content_type":"AIRPORT"},{"id":"9fe513f9-ecff-4eaf-a14a-cade691c54bb","name":"Lakeland-Noble F. Lee Memorial field","iata":"ARV","icao":"KARV","timezone":"America/Chicago","location":{"latitude":45.924167,"longitude":-89.732222},"city":"Minocqua","country":"United States","countryCode":"US","region":"North America","created":1519938460,"last_updated":1524073183,"relevance":4,"content_type":"AIRPORT"},{"id":"767b41c4-618c-4c18-808f-0bfe365ff7a1","name":"Ararat Airport","iata":"ARY","icao":"YARA","timezone":"Australia/Sydney","location":{"latitude":-37.316667,"longitude":143.0},"city":"Ararat","country":"Australia","countryCode":"AU","region":"Oceania","created":1519938460,"last_updated":1524073183,"relevance":2,"content_type":"AIRPORT"},{"id":"3e3e3c74-b6e4-46ea-874d-0d98c0b63e64","name":"N'zeto Airport","iata":"ARZ","icao":"FNZE","timezone":"Africa/Luanda","location":{"latitude":-7.5,"longitude":13.5},"city":"N'Zeto","country":"Angola","countryCode":"AO","region":"Africa","created":1519938460,"last_updated":1524073183,"relevance":2,"content_type":"AIRPORT"},{"id":"97916d2f-3e50-4a3a-a528-d4e2a411f4e8","name":"Assab International Airport","iata":"ASA","icao":"HHSB","timezone":"Africa/Asmara","location":{"latitude":13.07,"longitude":42.638333},"city":"Assab","country":"Eritrea","countryCode":"ER","region":"Africa","created":1519938460,"last_updated":1524073183,"relevance":2,"content_type":"AIRPORT"},{"id":"27688939-18b9-430a-b1f1-72eafe83e097","name":"Ashgabat Airport","iata":"ASB","icao":"UTAA","timezone":"Asia/Ashgabat","location":{"latitude":37.984183,"longitude":58.366978},"city":"Ashgabat","country":"Turkmenistan","countryCode":"TM","region":"Asia","created":1519938460,"last_updated":1524073183,"relevance":4,"content_type":"AIRPORT"},{"id":"e36d8ca9-08ad-45cd-b88d-c56da6e85923","name":"Aspen-Pitkin Co/Sardy Field","iata":"ASE","icao":"KASE","timezone":"America/Denver","location":{"latitude":39.219685,"longitude":-106.864688},"city":"Aspen","country":"United States","countryCode":"US","region":"North America","created":1519938460,"last_updated":1524073183,"relevance":4,"content_type":"AIRPORT"},{"id":"f49c2167-8787-4935-a34f-442b6b9e7478","name":"Astrakhan Airport","iata":"ASF","icao":"URWA","timezone":"Europe/Samara","location":{"latitude":46.287699,"longitude":47.999979},"city":"Astrakhan","country":"Russian Federation","countryCode":"RU","region":"Europe","created":1519938460,"last_updated":1524073183,"relevance":4,"content_type":"AIRPORT"},{"id":"bad762c2-b49e-445f-aed2-e49f7208a265","name":"Ashburton Aerodrome","iata":"ASG","icao":"NZAS","timezone":"Pacific/Auckland","location":{"latitude":-43.9,"longitude":171.783333},"city":"Ashburton","country":"New Zealand","countryCode":"NZ","region":"Oceania","created":1519938460,"last_updated":1524073183,"relevance":2,"content_type":"AIRPORT"},{"id":"1ac02cf2-2570-4745-b189-9f47fc9cb0a6","name":"RAF Ascension Island","iata":"ASI","icao":"FHAW","timezone":"Atlantic/St_Helena","location":{"latitude":-7.969604,"longitude":-14.393682},"city":"Ascension Island","country":"St. Helena","countryCode":"SH","region":"Africa","created":1519938460,"last_updated":1524073183,"relevance":4,"content_type":"AIRPORT"},{"id":"8dc8011f-bb12-4564-8b01-19f483d744dc","name":"Amami Airport","iata":"ASJ","icao":"RJKA","timezone":"Asia/Tokyo","location":{"latitude":28.431522,"longitude":129.707933},"city":"Amami O Shima","country":"Japan","countryCode":"JP","region":"Asia","created":1519938460,"last_updated":1524073183,"relevance":4,"content_type":"AIRPORT"},{"id":"f17c2910-091b-4453-9378-0fc7f4e8db42","name":"Yamoussoukro Airport","iata":"ASK","icao":"DIYO","timezone":"Africa/Abidjan","location":{"latitude":6.816667,"longitude":-5.283333},"city":"Yamoussoukro","country":"Cote d'Ivoire","countryCode":"CI","region":"Africa","created":1519938460,"last_updated":1524073183,"relevance":4,"content_type":"AIRPORT"},{"id":"f99b4656-06ef-4102-b319-caf1b1543ea4","name":"Asmara International Airport","iata":"ASM","icao":"HHAS","timezone":"Africa/Asmara","location":{"latitude":15.291111,"longitude":38.910278},"city":"Asmara","country":"Eritrea","countryCode":"ER","region":"Africa","created":1519938460,"last_updated":1524073183,"relevance":4,"content_type":"AIRPORT"},{"id":"dc6e538f-00b5-4cf7-b761-f07ef7b66ab3","name":"Talladega Municipal Airport","iata":"ASN","icao":"KASN","timezone":"America/Chicago","location":{"latitude":33.571351,"longitude":-86.05219},"city":"Talladega","country":"United States","countryCode":"US","region":"North America","created":1519938460,"last_updated":1524073183,"relevance":4,"content_type":"AIRPORT"},{"id":"2f4150d4-34b9-4220-af34-36b580572e77","name":"Asosa Airport","iata":"ASO","icao":"HASO","timezone":"Africa/Addis_Ababa","location":{"latitude":10.047222,"longitude":34.536667},"city":"Asosa","country":"Ethiopia","countryCode":"ET","region":"Africa","created":1519938460,"last_updated":1524073183,"relevance":4,"content_type":"AIRPORT"},{"id":"1837d69d-d0f6-4f57-9d02-46045ce6cf06","name":"Kayseri Erkilet Airport","iata":"ASR","icao":"LTAU","timezone":"Europe/Istanbul","location":{"latitude":38.770293,"longitude":35.494891},"city":"Kayseri","country":"Turkey","countryCode":"TR","region":"Europe","created":1519938460,"last_updated":1524073183,"relevance":4,"content_type":"AIRPORT"},{"id":"bee623cf-4a7e-4ad4-b0c7-e37643760bf8","name":"Arathusa Safari Lodge Airport","iata":"ASS","icao":"FACC","timezone":"Africa/Johannesburg","location":{"latitude":-24.736469,"longitude":31.514126},"city":"Chitwa Chitwa","country":"South Africa","countryCode":"ZA","region":"Africa","created":1519938460,"last_updated":1524073183,"relevance":4,"content_type":"AIRPORT"},{"id":"dc15d3af-e7b5-48c5-89da-bde35498015f","name":"Astoria Regional Airport","iata":"AST","icao":"KAST","timezone":"America/Los_Angeles","location":{"latitude":46.159722,"longitude":-123.88},"city":"Astoria","country":"United States","countryCode":"US","region":"North America","created":1519938460,"last_updated":1524073183,"relevance":4,"content_type":"AIRPORT"},{"id":"fdea2170-b996-4993-b37b-7481c35efc51","name":"Amboseli Airport","iata":"ASV","icao":"HKAM","timezone":"Africa/Nairobi","location":{"latitude":-2.633333,"longitude":37.25},"city":"Amboseli","country":"Kenya","countryCode":"KE","region":"Africa","created":1519938460,"last_updated":1524073183,"relevance":4,"content_type":"AIRPORT"},{"id":"c9a2ce58-e0cc-4497-924e-3889a4ba2d6e","name":"Aswan International Airport","iata":"ASW","icao":"HESN","timezone":"Africa/Cairo","location":{"latitude":23.968022,"longitude":32.824818},"city":"Aswan","country":"Egypt","countryCode":"EG","region":"Middle East","created":1519938460,"last_updated":1524073183,"relevance":4,"content_type":"AIRPORT"},{"id":"112fdbbd-2b29-4b87-8473-2b013f19841b","name":"John F Kennedy Memorial Airport","iata":"ASX","icao":"KASX","timezone":"America/Chicago","location":{"latitude":46.55,"longitude":-90.916667},"city":"Ashland","country":"United States","countryCode":"US","region":"North America","created":1519938460,"last_updated":1524073183,"relevance":2,"content_type":"AIRPORT"},{"id":"9b79dfe7-f69d-4716-a370-2f54e42efb43","name":"Ashley Municipal Airport","iata":"ASY","icao":"KASY","timezone":"America/Chicago","location":{"latitude":46.033333,"longitude":-99.366667},"city":"Ashley","country":"United States","countryCode":"US","region":"North America","created":1519938460,"last_updated":1524073183,"relevance":2,"content_type":"AIRPORT"},{"id":"6fc70228-9614-469a-80fb-a5a857782938","name":"Atbara Airport","iata":"ATB","icao":"HSAT","timezone":"Africa/Khartoum","location":{"latitude":17.716667,"longitude":34.016667},"city":"Atbara","country":"Sudan","countryCode":"SD","region":"Africa","created":1519938460,"last_updated":1524073183,"relevance":2,"content_type":"AIRPORT"},{"id":"74088bcc-77af-4d1a-83c3-93debda24e58","name":"Arthur's Town Airport","iata":"ATC","icao":"MYCA","timezone":"America/Nassau","location":{"latitude":24.628611,"longitude":-75.671389},"city":"Arthur's Town","country":"Bahamas","countryCode":"BS","region":"Caribbean","created":1519938460,"last_updated":1524073183,"relevance":4,"content_type":"AIRPORT"},{"id":"a831cd69-e41d-4347-9347-df0900f6f420","name":"Chachoán Airport","iata":"ATF","icao":"SEAM","timezone":"America/Guayaquil","location":{"latitude":-1.083333,"longitude":-78.7},"city":"Ambato","country":"Ecuador","countryCode":"EC","region":"South America","created":1519938460,"last_updated":1524073183,"relevance":2,"content_type":"AIRPORT"},{"id":"cf45cd09-2351-45e6-bee2-e05eb99b1673","name":"Eleftherios Venizelos International Airport","iata":"ATH","icao":"LGAV","timezone":"Europe/Athens","location":{"latitude":37.93635,"longitude":23.946486},"city":"Athens","country":"Greece","countryCode":"GR","region":"Europe","created":1519938460,"last_updated":1524073183,"relevance":8,"content_type":"AIRPORT"},{"id":"fe37be2b-dc95-4d3d-966a-a32d9b332b25","name":"Antsirabe Airport","iata":"ATJ","icao":"FMME","timezone":"Indian/Antananarivo","location":{"latitude":-19.835319,"longitude":47.066926},"city":"Antsirabe","country":"Madagascar","countryCode":"MG","region":"Africa","created":1519938460,"last_updated":1524073183,"relevance":4,"content_type":"AIRPORT"},{"id":"6f0c1d11-cfef-4b33-b462-90379270f593","name":"Hartsfield Jackson Atlanta International Airport","iata":"ATL","icao":"KATL","timezone":"America/New_York","location":{"latitude":33.640067,"longitude":-84.44403},"city":"Atlanta","country":"United States","countryCode":"US","region":"North America","created":1519938460,"last_updated":1524073183,"relevance":10,"content_type":"AIRPORT"},{"id":"3277d820-6859-4aa8-9ca5-201da592e239","name":"Ohio University Snyder Field","iata":"ATO","icao":"KUNI","timezone":"America/New_York","location":{"latitude":39.333333,"longitude":-82.1},"city":"Athens","country":"United States","countryCode":"US","region":"North America","created":1519938460,"last_updated":1524073183,"relevance":2,"content_type":"AIRPORT"},{"id":"a138ed0b-3d68-42b7-89a6-1c20e4b02e36","name":"Ati Airport","iata":"ATV","icao":"FTTI","timezone":"Africa/Ndjamena","location":{"latitude":13.242222,"longitude":18.3075},"city":"Ati","country":"Chad","countryCode":"TD","region":"Africa","created":1519938460,"last_updated":1524073183,"relevance":2,"content_type":"AIRPORT"},{"id":"83853065-f325-40a6-b470-5c648d1ed417","name":"Appleton International Airport","iata":"ATW","icao":"KATW","timezone":"America/Chicago","location":{"latitude":44.26011,"longitude":-88.509943},"city":"Appleton","country":"United States","countryCode":"US","region":"North America","created":1519938460,"last_updated":1524073183,"relevance":4,"content_type":"AIRPORT"},{"id":"7c9238b1-bf2b-41ff-992c-946d811ff00a","name":"Watertown Regional Airport","iata":"ATY","icao":"KATY","timezone":"America/Chicago","location":{"latitude":44.908889,"longitude":-97.154167},"city":"Watertown","country":"United States","countryCode":"US","region":"North America","created":1519938460,"last_updated":1524073183,"relevance":4,"content_type":"AIRPORT"},{"id":"1b4224f6-9997-41ef-bd99-58691048886d","name":"Assiut International Airport","iata":"ATZ","icao":"HEAT","timezone":"Africa/Cairo","location":{"latitude":27.052679,"longitude":31.011268},"city":"Assiut","country":"Egypt","countryCode":"EG","region":"Middle East","created":1519938460,"last_updated":1524073183,"relevance":4,"content_type":"AIRPORT"},{"id":"46545a7f-bd99-4a55-81de-661f5d22d7fb","name":"Santiago Perez Airport","iata":"AUC","icao":"SKUC","timezone":"America/Bogota","location":{"latitude":7.071667,"longitude":-70.7425},"city":"Arauca","country":"Colombia","countryCode":"CO","region":"South America","created":1519938460,"last_updated":1524073183,"relevance":4,"content_type":"AIRPORT"},{"id":"dced618e-eba5-4bd8-a9e8-98abc6955798","name":"Augustus Downs Airport","iata":"AUD","icao":"YAGD","timezone":"Australia/Brisbane","location":{"latitude":-18.506944,"longitude":139.881667},"city":"Augustus Downs","country":"Australia","countryCode":"AU","region":"Oceania","created":1519938460,"last_updated":1524073183,"relevance":2,"content_type":"AIRPORT"},{"id":"d303d204-5fd0-485c-98dd-7374123f4237","name":"Auxerre-Branches Airport","iata":"AUF","icao":"LFLA","timezone":"Europe/Paris","location":{"latitude":47.85,"longitude":3.5},"city":"Auxerre","country":"France","countryCode":"FR","region":"Europe","created":1519938460,"last_updated":1524073183,"relevance":2,"content_type":"AIRPORT"},{"id":"1f275af7-54af-4898-b7d6-4c0caa2b7eb6","name":"Abu Dhabi International Airport","iata":"AUH","icao":"OMAA","timezone":"Asia/Dubai","location":{"latitude":24.426912,"longitude":54.645974},"city":"Abu Dhabi","country":"United Arab Emirates","countryCode":"AE","region":"Middle East","created":1519938460,"last_updated":1524073183,"relevance":8,"content_type":"AIRPORT"},{"id":"3dc120e0-6be1-4d2c-9486-2635c39cae98","name":"Austin Municipal Airport","iata":"AUM","icao":"KAUM","timezone":"America/Chicago","location":{"latitude":43.666667,"longitude":-92.983333},"city":"Austin","country":"United States","countryCode":"US","region":"North America","created":1519938460,"last_updated":1524073183,"relevance":2,"content_type":"AIRPORT"},{"id":"9d475101-c053-43b0-abbf-e9f33aa40d2e","name":"Auburn Municipal Airport","iata":"AUN","icao":"KAUN","timezone":"America/Los_Angeles","location":{"latitude":38.9,"longitude":-121.066667},"city":"Auburn","country":"United States","countryCode":"US","region":"North America","created":1519938460,"last_updated":1524073183,"relevance":2,"content_type":"AIRPORT"},{"id":"18383cba-a273-4b67-a03f-ae65958d70ed","name":"Hiva Oa-Atuona Airport","iata":"AUQ","icao":"NTMN","timezone":"Pacific/Marquesas","location":{"latitude":-9.768596,"longitude":-139.009944},"city":"Atuona","country":"French Polynesia","countryCode":"PF","region":"Oceania","created":1519938460,"last_updated":1524073183,"relevance":4,"content_type":"AIRPORT"},{"id":"52ccc4dd-a416-4949-82e8-18a3b4339c2e","name":"Aurillac Airport","iata":"AUR","icao":"LFLW","timezone":"Europe/Paris","location":{"latitude":44.8975,"longitude":2.418056},"city":"Aurillac","country":"France","countryCode":"FR","region":"Europe","created":1519938460,"last_updated":1524073183,"relevance":4,"content_type":"AIRPORT"},{"id":"d63b6bd2-9ed4-447e-914f-ca4d96f28653","name":"Austin Bergstrom International Airport","iata":"AUS","icao":"KAUS","timezone":"America/Chicago","location":{"latitude":30.202545,"longitude":-97.667064},"city":"Austin","country":"United States","countryCode":"US","region":"North America","created":1519938460,"last_updated":1524073183,"relevance":8,"content_type":"AIRPORT"},{"id":"2a1b8044-e039-44a0-bb76-84def64b75fc","name":"Wausau Downtown Airport","iata":"AUW","icao":"KAUW","timezone":"America/Chicago","location":{"latitude":44.926188,"longitude":-89.626599},"city":"Wausau","country":"United States","countryCode":"US","region":"North America","created":1519938460,"last_updated":1524073183,"relevance":2,"content_type":"AIRPORT"},{"id":"78869c70-00bb-435c-a071-5464b816b231","name":"Araguaína Airport","iata":"AUX","icao":"SWGN","timezone":"America/Belem","location":{"latitude":-7.2,"longitude":-48.2},"city":"Araguaina","country":"Brazil","countryCode":"BR","region":"South America","created":1519938460,"last_updated":1524073183,"relevance":4,"content_type":"AIRPORT"},{"id":"8a7c701f-0c2f-46b1-b5f7-64ddebe98ce5","name":"Aurora Municipal Airport","iata":"AUZ","icao":"KARR","timezone":"America/Chicago","location":{"latitude":41.770365,"longitude":-88.471194},"city":"Aurora","country":"United States","countryCode":"US","region":"North America","created":1519938460,"last_updated":1524073183,"relevance":4,"content_type":"AIRPORT"},{"id":"16ad08c5-f3cc-414a-b951-f61f4a7ddb34","name":"Maximo Gomez Airport","iata":"AVI","icao":"MUCA","timezone":"America/Havana","location":{"latitude":22.025,"longitude":-78.791389},"city":"Ciego De Avila","country":"Cuba","countryCode":"CU","region":"Caribbean","created":1519938460,"last_updated":1524073183,"relevance":2,"content_type":"AIRPORT"},{"id":"f991375d-f451-4e1c-bfc9-06612c283ff9","name":"Arvaikheer Airport","iata":"AVK","icao":"ZMAH","timezone":"Asia/Ulaanbaatar","location":{"latitude":46.266667,"longitude":102.783333},"city":"Arvaikheer","country":"Mongolia","countryCode":"MN","region":"Asia","created":1519938460,"last_updated":1524073183,"relevance":2,"content_type":"AIRPORT"},{"id":"ae4991d6-88f1-4599-922b-1d6ef2d0d016","name":"Avignon-Caumont Airport","iata":"AVN","icao":"LFMV","timezone":"Europe/Paris","location":{"latitude":43.906542,"longitude":4.902082},"city":"Avignon","country":"France","countryCode":"FR","region":"Europe","created":1519938460,"last_updated":1524073183,"relevance":4,"content_type":"AIRPORT"},{"id":"e5c35733-cea4-4456-95ac-43b35f543110","name":"Avon Park Executive Airport","iata":"AVO","icao":"KAVO","timezone":"America/New_York","location":{"latitude":27.6,"longitude":-81.516667},"city":"Avon Park","country":"United States","countryCode":"US","region":"North America","created":1519938460,"last_updated":1524073183,"relevance":2,"content_type":"AIRPORT"},{"id":"f63d9be6-125a-4ed2-bd60-8b93f57c1c16","name":"Wilkes Barre Scranton International Airport","iata":"AVP","icao":"KAVP","timezone":"America/New_York","location":{"latitude":41.336698,"longitude":-75.730643},"city":"Wilkes-Barre","country":"United States","countryCode":"US","region":"North America","created":1519938460,"last_updated":1524073183,"relevance":4,"content_type":"AIRPORT"},{"id":"ac02efa3-630e-4e17-b876-139464eeb8ac","name":"Avalon Airport","iata":"AVV","icao":"YMAV","timezone":"Australia/Sydney","location":{"latitude":-38.026372,"longitude":144.473084},"city":"Avalon","country":"Australia","countryCode":"AU","region":"Oceania","created":1519938460,"last_updated":1524073183,"relevance":4,"content_type":"AIRPORT"},{"id":"69e0b0b0-5f11-47e1-9bd6-c11b4e08636d","name":"Catalina Airport","iata":"AVX","icao":"KAVX","timezone":"America/Los_Angeles","location":{"latitude":33.4049,"longitude":-118.416},"city":"Avalon","country":"United States","countryCode":"US","region":"North America","created":1519938460,"last_updated":1524073183,"relevance":4,"content_type":"AIRPORT"},{"id":"0c1a359c-50f2-486e-ad66-7ac9c71226ef","name":"Awassa Airport","iata":"AWA","icao":"HALA","timezone":"Africa/Addis_Ababa","location":{"latitude":7.062777,"longitude":38.490802},"city":"Awasa","country":"Ethiopia","countryCode":"ET","region":"Africa","created":1519938460,"last_updated":1524073183,"relevance":4,"content_type":"AIRPORT"},{"id":"9f02f5de-1363-4426-9230-d4f2b7dd4e8f","name":"Aniwa Airport","iata":"AWD","icao":"NVVB","timezone":"Pacific/Efate","location":{"latitude":-19.25,"longitude":169.5},"city":"Aniwa","country":"Vanuatu","countryCode":"VU","region":"Oceania","created":1519938460,"last_updated":1524073183,"relevance":4,"content_type":"AIRPORT"},{"id":"2f745747-e7a1-461b-981a-a2489bc8032a","name":"West Memphis Municipal Airport","iata":"AWM","icao":"KAWM","timezone":"America/Chicago","location":{"latitude":35.137882,"longitude":-90.231974},"city":"West Memphis","country":"United States","countryCode":"US","region":"North America","created":1519938460,"last_updated":1524073183,"relevance":4,"content_type":"AIRPORT"},{"id":"15831f88-42ae-4f72-aef8-85e5b424079f","name":"Awantipur Air Force Station","iata":"AWT","icao":"VIAW","timezone":"Asia/Kolkata","location":{"latitude":33.876628,"longitude":74.975681},"city":"Awantipur","country":"India","countryCode":"IN","region":"Asia","created":1519938460,"last_updated":1524073183,"relevance":2,"content_type":"AIRPORT"},{"id":"74265942-f437-4d45-9eec-d3ed2af5b65f","name":"Ahwaz Airport","iata":"AWZ","icao":"OIAW","timezone":"Asia/Tehran","location":{"latitude":31.342921,"longitude":48.746682},"city":"Ahwaz","country":"Iran","countryCode":"IR","region":"Asia","created":1519938460,"last_updated":1524073183,"relevance":4,"content_type":"AIRPORT"},{"id":"cb2f425d-b2b6-4703-8be5-d43aa2f8c948","name":"Aramac Airport","iata":"AXC","icao":"YAMC","timezone":"Australia/Brisbane","location":{"latitude":-22.958056,"longitude":145.2425},"city":"Aramac","country":"Australia","countryCode":"AU","region":"Oceania","created":1519938460,"last_updated":1524073184,"relevance":2,"content_type":"AIRPORT"},{"id":"41a20bd5-f0e0-420a-a383-bdf43a2463d0","name":"Dimokritos Airport","iata":"AXD","icao":"LGAL","timezone":"Europe/Athens","location":{"latitude":40.856784,"longitude":25.944893},"city":"Alexandroupolis","country":"Greece","countryCode":"GR","region":"Europe","created":1519938460,"last_updated":1524073184,"relevance":4,"content_type":"AIRPORT"},{"id":"fa693ee2-afd8-4bea-a2c3-d2a9215e5388","name":"Algona Municipal Airport","iata":"AXG","icao":"KAXA","timezone":"America/Chicago","location":{"latitude":43.066667,"longitude":-94.233333},"city":"Algona","country":"United States","countryCode":"US","region":"North America","created":1519938460,"last_updated":1524073184,"relevance":2,"content_type":"AIRPORT"},{"id":"385042d9-532d-41fc-9a85-da2ae346284c","name":"Amakusa Airport","iata":"AXJ","icao":"RJDA","timezone":"Asia/Tokyo","location":{"latitude":32.483262,"longitude":130.155645},"city":"Amakusa","country":"Japan","countryCode":"JP","region":"Asia","created":1519938460,"last_updated":1524073184,"relevance":4,"content_type":"AIRPORT"},{"id":"e0c4fe62-d574-4824-92fa-1d967e3c64ea","name":"Ataq Airport","iata":"AXK","icao":"ODAT","timezone":"Asia/Aden","location":{"latitude":13.866667,"longitude":46.3},"city":"Ataq","country":"Republic of Yemen","countryCode":"YE","region":"Middle East","created":1519938460,"last_updated":1524073184,"relevance":4,"content_type":"AIRPORT"},{"id":"24228d4b-ec8e-4040-aa0a-ff834257f802","name":"Chandler Field","iata":"AXN","icao":"KAXN","timezone":"America/Chicago","location":{"latitude":45.867222,"longitude":-95.394167},"city":"Alexandria","country":"United States","countryCode":"US","region":"North America","created":1519938460,"last_updated":1524073184,"relevance":4,"content_type":"AIRPORT"},{"id":"a22bb9d8-1647-4075-8628-f81b7a7cf047","name":"Spring Point Airport","iata":"AXP","icao":"MYAP","timezone":"America/Nassau","location":{"latitude":22.45,"longitude":-73.966667},"city":"Spring Point","country":"Bahamas","countryCode":"BS","region":"Caribbean","created":1519938460,"last_updated":1524073184,"relevance":4,"content_type":"AIRPORT"},{"id":"57bcc3aa-8339-4b56-8ca9-2655376b075a","name":"Arutua Airport","iata":"AXR","icao":"NTGU","timezone":"Pacific/Tahiti","location":{"latitude":-15.25,"longitude":-146.75},"city":"Arutua","country":"French Polynesia","countryCode":"PF","region":"Oceania","created":1519938460,"last_updated":1524073184,"relevance":4,"content_type":"AIRPORT"},{"id":"6997b297-a936-4b80-8497-12e694b40886","name":"Akita Airport","iata":"AXT","icao":"RJSK","timezone":"Asia/Tokyo","location":{"latitude":39.611771,"longitude":140.220147},"city":"Akita","country":"Japan","countryCode":"JP","region":"Asia","created":1519938460,"last_updated":1524073184,"relevance":6,"content_type":"AIRPORT"},{"id":"b6f00523-0fb8-4ea8-8cc6-e2619bd5911f","name":"Axum Airport","iata":"AXU","icao":"HAAX","timezone":"Africa/Addis_Ababa","location":{"latitude":14.120833,"longitude":38.716667},"city":"Axum","country":"Ethiopia","countryCode":"ET","region":"Africa","created":1519938460,"last_updated":1524073184,"relevance":4,"content_type":"AIRPORT"},{"id":"281e4027-1a46-41f9-ac6c-f3f194b83df0","name":"Neil Armstrong Airport","iata":"AXV","icao":"KAXV","timezone":"America/New_York","location":{"latitude":40.566667,"longitude":-84.2},"city":"Wapakoneta","country":"United States","countryCode":"US","region":"North America","created":1519938460,"last_updated":1524073184,"relevance":2,"content_type":"AIRPORT"},{"id":"52c92961-4321-44e9-8158-5d025a6b370f","name":"Coronel FAP Alfredo Mendivil Duarte Airport","iata":"AYP","icao":"SPHO","timezone":"America/Lima","location":{"latitude":-13.197222,"longitude":-74.247222},"city":"Ayacucho","country":"Peru","countryCode":"PE","region":"South America","created":1519938460,"last_updated":1524073184,"relevance":4,"content_type":"AIRPORT"},{"id":"8c118ff1-6867-4cb8-9bb8-2f37489144c3","name":"Ayers Rock Connellan Airport","iata":"AYQ","icao":"YAYE","timezone":"Australia/Darwin","location":{"latitude":-25.190877,"longitude":130.976578},"city":"Ayers Rock","country":"Australia","countryCode":"AU","region":"Oceania","created":1519938460,"last_updated":1524073184,"relevance":4,"content_type":"AIRPORT"},{"id":"328063a4-f818-4f05-ae1c-a935be0306bf","name":"Ayr Airport","iata":"AYR","icao":"YAYR","timezone":"Australia/Brisbane","location":{"latitude":-19.596667,"longitude":147.324444},"city":"Ayr","country":"Australia","countryCode":"AU","region":"Oceania","created":1519938460,"last_updated":1524073184,"relevance":2,"content_type":"AIRPORT"},{"id":"a1382c3b-6c28-4dd4-95f8-9938091e8de3","name":"Antalya International Airport","iata":"AYT","icao":"LTAI","timezone":"Europe/Istanbul","location":{"latitude":36.899282,"longitude":30.801349},"city":"Antalya","country":"Turkey","countryCode":"TR","region":"Europe","created":1519938460,"last_updated":1524073184,"relevance":8,"content_type":"AIRPORT"},{"id":"7cff1e46-1af8-425f-8bb5-ac3fb61fa1ed","name":"Phoenix-Mesa-Gateway Airport","iata":"AZA","icao":"KIWA","timezone":"America/Phoenix","location":{"latitude":33.307778,"longitude":-111.655556},"city":"Mesa","country":"United States","countryCode":"US","region":"North America","created":1519938460,"last_updated":1524073184,"relevance":4,"content_type":"AIRPORT"},{"id":"e9d48dc3-d927-450d-9f95-685d3d9b9db6","name":"General Juan N Alvarez International Airport","iata":"ACA","icao":"MMAA","timezone":"America/Mexico_City","location":{"latitude":16.762403,"longitude":-99.754592},"city":"Acapulco","country":"Mexico","countryCode":"MX","region":"North America","created":1519938460,"last_updated":1524073180,"relevance":4,"content_type":"AIRPORT"},{"id":"5779fc7c-9778-4a83-ab21-0d8c86e0ed5e","name":"Touat Cheikh Sidi Mohamed Belkebir Airport","iata":"AZR","icao":"DAUA","timezone":"Africa/Algiers","location":{"latitude":27.883333,"longitude":-0.283333},"city":"Adrar","country":"Algeria","countryCode":"DZ","region":"Africa","created":1519938460,"last_updated":1524073184,"relevance":4,"content_type":"AIRPORT"},{"id":"d8a37200-4173-4e09-b67d-8c19c125ba2d","name":"Ambriz Airport","iata":"AZZ","icao":"FNAM","timezone":"Africa/Luanda","location":{"latitude":-7.883333,"longitude":13.15},"city":"Ambriz","country":"Angola","countryCode":"AO","region":"Africa","created":1519938460,"last_updated":1524073184,"relevance":2,"content_type":"AIRPORT"},{"id":"345ffe28-2e69-4bd9-a03e-15e76a6e2f8e","name":"Barksdale Air Force Base","iata":"BAD","icao":"KBAD","timezone":"America/Chicago","location":{"latitude":32.5,"longitude":-93.666667},"city":"Shreveport","country":"United States","countryCode":"US","region":"North America","created":1519938460,"last_updated":1524073184,"relevance":4,"content_type":"AIRPORT"},{"id":"c46d91b0-4a79-4537-9861-2db5527e5fe3","name":"Barcelonnette - Saint-Pons Airport","iata":"BAE","icao":"LFMR","timezone":"Europe/Paris","location":{"latitude":44.387189,"longitude":6.609135},"city":"Barcelonnette","country":"France","countryCode":"FR","region":"Europe","created":1519938460,"last_updated":1524073184,"relevance":2,"content_type":"AIRPORT"},{"id":"c7410afc-ce82-418a-a974-8c0d3be3108f","name":"Westfield-Barnes Regional Airport","iata":"BAF","icao":"KBAF","timezone":"America/New_York","location":{"latitude":42.157954,"longitude":-72.715624},"city":"Springfield","country":"United States","countryCode":"US","region":"North America","created":1519938460,"last_updated":1524073184,"relevance":4,"content_type":"AIRPORT"},{"id":"5b604f32-cc20-40a4-98c1-71429d3544b6","name":"Loakan Airport","iata":"BAG","icao":"RPUB","timezone":"Asia/Manila","location":{"latitude":16.376667,"longitude":120.617778},"city":"Baguio","country":"Philippines","countryCode":"PH","region":"Asia","created":1519938460,"last_updated":1524073184,"relevance":2,"content_type":"AIRPORT"},{"id":"4502896c-4ec8-4f89-9e2f-47360f948674","name":"Buenos Aires Airport","iata":"BAI","icao":"MRBA","timezone":"America/Costa_Rica","location":{"latitude":9.166667,"longitude":-83.333333},"city":"Buenos Aires","country":"Costa Rica","countryCode":"CR","region":"Central America","created":1519938460,"last_updated":1524073184,"relevance":2,"content_type":"AIRPORT"},{"id":"0bebe8a6-b493-42b3-85ad-1310cff7d202","name":"Batman Airport","iata":"BAL","icao":"LTCJ","timezone":"Europe/Istanbul","location":{"latitude":37.916667,"longitude":41.083333},"city":"Batman","country":"Turkey","countryCode":"TR","region":"Europe","created":1519938460,"last_updated":1524073184,"relevance":4,"content_type":"AIRPORT"},{"id":"74e4a357-be95-4d8b-b264-7ffb3e1e0572","name":"Battle Mountain Airport","iata":"BAM","icao":"KBAM","timezone":"America/Los_Angeles","location":{"latitude":40.633333,"longitude":-116.933333},"city":"Battle Mountain","country":"United States","countryCode":"US","region":"North America","created":1519938460,"last_updated":1524073184,"relevance":2,"content_type":"AIRPORT"},{"id":"e1516887-1863-4b6d-96a0-c64104b32e18","name":"Ernesto Cortissoz International Airport","iata":"BAQ","icao":"SKBQ","timezone":"America/Bogota","location":{"latitude":10.889594,"longitude":-74.780818},"city":"Barranquilla","country":"Colombia","countryCode":"CO","region":"South America","created":1519938460,"last_updated":1524073184,"relevance":6,"content_type":"AIRPORT"},{"id":"6a2e7b90-6e7d-4c55-9f26-49b03b55e624","name":"Ballalae Airport","iata":"BAS","icao":"AGGE","timezone":"Pacific/Guadalcanal","location":{"latitude":-6.993418,"longitude":155.883276},"city":"Balalae","country":"Solomon Islands","countryCode":"SB","region":"Oceania","created":1519938460,"last_updated":1524073184,"relevance":4,"content_type":"AIRPORT"},{"id":"b45d1aeb-e0d5-4c1c-8a6b-3b7d76c062f2","name":"Chafei Amsei Airport","iata":"BAT","icao":"SBBT","timezone":"America/Sao_Paulo","location":{"latitude":-20.55,"longitude":-48.55},"city":"Barretos","country":"Brazil","countryCode":"BR","region":"South America","created":1519938460,"last_updated":1524073184,"relevance":2,"content_type":"AIRPORT"},{"id":"8f868f01-8f8e-4b75-b392-578136214790","name":"Barnaul Airport","iata":"BAX","icao":"UNBB","timezone":"Asia/Krasnoyarsk","location":{"latitude":53.361086,"longitude":83.547643},"city":"Barnaul","country":"Russian Federation","countryCode":"RU","region":"Europe","created":1519938460,"last_updated":1524073184,"relevance":4,"content_type":"AIRPORT"},{"id":"6b253ecc-90d2-492a-abb5-8438b6a62c90","name":"Tautii Magheraus Airport","iata":"BAY","icao":"LRBM","timezone":"Europe/Bucharest","location":{"latitude":47.658213,"longitude":23.466204},"city":"Baia Mare","country":"Romania","countryCode":"RO","region":"Europe","created":1519938460,"last_updated":1524073184,"relevance":4,"content_type":"AIRPORT"},{"id":"b69451b0-b9f6-40bf-9ab3-a00decb7c2aa","name":"Barcelos Airport","iata":"BAZ","icao":"SWBC","timezone":"America/Porto_Velho","location":{"latitude":-0.966944,"longitude":-62.933611},"city":"Barbelos","country":"Brazil","countryCode":"BR","region":"South America","created":1519938460,"last_updated":1524073184,"relevance":4,"content_type":"AIRPORT"},{"id":"0323d0b8-e06e-4cc6-855d-e4f72f015607","name":"Benson Municipal Airport","iata":"BBB","icao":"KBBB","timezone":"America/Chicago","location":{"latitude":45.316667,"longitude":-95.6},"city":"Benson","country":"United States","countryCode":"US","region":"North America","created":1519938460,"last_updated":1524073184,"relevance":2,"content_type":"AIRPORT"},{"id":"c2036726-4a54-49bb-9a05-1ce63a53ac16","name":"Bay City Municipal Airport","iata":"BBC","icao":"KBYY","timezone":"America/Chicago","location":{"latitude":28.983333,"longitude":-95.966667},